,company_name,address,tel,mech,lat,lon
0,บริษัท สีสันนครินทร์ จำกัด,1071 ถ.ศรีนครินทร์ แขวงสวนหลวง เขตสวนหลวง กรุงเทพมหานคร 10250,02-322-2200,มี,13.7056007,100.6455495
1,บริษัท โฮมเพ้นท์ จำกัดสาขามีนบุรี-แยก มิสทีน,351/1 ถ.รามคำแหง แขวงสะพานสูง เขตสะพานสูง กรุงเทพมหานคร 10240,02-540-7379-81,มี,13.7930282,100.7019286
2,บริษัท โฮมเพ้นท์ จำกัด,655/4 ถ.รามคำแหง แขวงหัวหมาก เขตบางกะปิ กรุงเทพมหานคร 10240,02-735-6411-3,มี,13.7703648,100.6619595
3,บริษัท สีสัน สุวินทวงศ์ จำกัด,88 หมู่ 2 ถ.สุวินทวงศ์ แขวงลำผักชี เขตหนองจอก กรุงเทพมหานคร 10530,02-172-5000,มี,13.8084914,100.818873
4,บริษัท สีสันร่มเกล้า จำกัด,400 ถ.ร่มเกล้า แขวงมีนบุรี เขตมีนบุรี กรุงเทพมหานคร 10510,02-9151115,มี,13.773251,100.7462263
5,หจก. โชครุ่งเรืองเพ้นท์,"574,576 ถ.ประชาอุทิศ แขวงทุ่งครุ เขตทุ่งครุ กรุงเทพมหานคร 10140",02-815-9237-9,มี,13.615771,100.5111147
6,บริษัท บ้านสบาย 191 จำกัด,74/1-2 ถ.พุทธมณฑลสาย 2 แขวงบางแคเหนือ เขตบางแค กรุงเทพมหานคร 10160,081-916-6679,มี,13.7157546,100.3959206
7,บริษัท เกรียงยงอิมเพ็กซ์ จำกัด,2349-2355 ถ.ลาดพร้าว แขวงสะพานสอง เขตวังทองหลาง กรุงเทพมหานคร 10310,02-530-0531-8,มี,13.78828181,100.6046311
8,บริษัท สุดีเพ้นท์เซ็นเตอร์ จำกัด,"797,799 ถ.รามคำแหง แขวงหัวหมาก เขตบางกะปิ กรุงเทพมหานคร 10240","02-374-2540, 374-7346",มี,13.7618411,100.6371842
9,บริษัท โฮมเพ้นท์ จำกัด สาขา รัตนาธิเบศร์-ราชพฤกษ์,19/12 หมู่ 5 ถ.ราชพฤกษ์ ต.บางรักน้อย อ.เมืองนนทบุรี จ.นนทบุรี 11000,02-191-9893,มี,13.8870961,100.4506178
10,บริษัท โฮมเพ้นท์ จำกัดสาขากาญจนาภิเษก- บางใหญ่,51 หมู่ 1 ถ.กาญจนาภิเษก ต.บางแม่นาง อ.บางใหญ่ จ.นนทบุรี 11140,02-595-5172-3,มี,13.8554175,100.4119646
11,บริษัท โฮมเพ้นท์ จำกัดสาขาบางบัวทอง-กาญจนาภิเษก,57/4 หมู่ที่ 13 ต.บางบัวทอง อ.บางบัวทอง จ.นนทบุรี 11110,02-194-4861-2,มี,13.9319343,100.415632
12,บริษัท โฮมเพ้นท์ จำกัดสาขาปิ่นเกล้า- ราชพฤกษ์,110/6-9 ม.5 ถ.ราชพฤกษ์ ต.มหาสวัสดิ์ อ.บางกรวย จ.นนทบุรี 11130,02-243-3215-7,มี,13.8074956,100.4499584
13,บริษัท อดิสรณ์ การช่าง จำกัด,2/101 หมู่ที่ 13 ต.บางรักพัฒนา อ.บางบัวทอง จ.นนทบุรี 11110,,ไม่มี,,
14,บริษัท โฮมเพ้นท์ จำกัดสาขาศรีนครินทร์- บางนา,437/7-9 ถ.ศรีนครินทร์ ต.สำโรงเหนือ อ.เมืองสมุทรปราการ จ.สมุทรปราการ 10270,02-383-4789,มี,13.6428991,100.6360347
15,แสงชัยโลหะกิจ 2,"937,939 ถ.เพชรเกษม แขวงหนองค้างพลู เขตหนองแขม กรุงเทพมหานคร 10160",02-420-0718,มี,13.745692,100.223785
16,บริษัท ทรัพย์รุ่งเรือง (1991) จำกัด,52/24 ถ.พุทธมณฑล สาย 3 แขวงทวีวัฒนา เขตทวีวัฒนา กรุงเทพมหานคร 10170,085-841-1148,ไม่มี,13.76609,100.5064806
17,รุ่งโรจน์ค้าไม้,146-148 ถ.บางขุนนนท์ แขวงคลองชักพระ เขตตลิ่งชัน กรุงเทพมหานคร 10170,"02-433-5623, 02-433-2365",ไม่มี,13.777624,100.6052523
18,เสริมเจริญ ซัพพลาย,77/4 หมู่ที่ 2 ถ.ฉิมพลี แขวงฉิมพลี เขตตลิ่งชัน กรุงเทพมหานคร 10170,02-448-7204,ไม่มี,13.7796766,100.6786167
19,บริษัท ตั้งเจริญ แมททีเรียล แอนด์ ซัพพลาย จำกัด,7/1 หมู่ที่ 18 ถ.บรมราชชนนี แขวงศาลาธรรมสพน์ เขตทวีวัฒนา กรุงเทพมหานคร 10170,02-885-8403,ไม่มี,13.7820516,100.5945731
20,บริษัท จิตไพศาลเทรดดิ้ง จำกัด,1 ซ.เพชรเกษม 112 แขวงหนองค้างพลู เขตหนองแขม กรุงเทพมหานคร 10160,02-420-7058,ไม่มี,13.7055381,100.5342415
21,จงมีชัยค้าวัสดุ,"38,40 ถ.ชักพระ แขวงตลิ่งชัน เขตตลิ่งชัน กรุงเทพมหานคร 10170","02-434-8310, 433-3382",ไม่มี,13.7803454,100.6681407
22,เปงเฮงฮวดสามพราน,16/8-9 ถ.เพชรเกษม ต.ท่าตลาด อ.สามพราน จ.นครปฐม 73110,"034-222841, 222842",ไม่มี,13.745692,100.223785
23,บริษัท โทเทิล บิลติ้ง โปรดักส์ จำกัด,177/9 หมู่ที่ 5 ถ.ศาลายา-บางภาษี ต.ศาลายา อ.พุทธมณฑล จ.นครปฐม 73170,"034-246-289, 034-246-780",มี,13.8286507,100.5917648
24,บริษัท ทรัพย์ศิริ 2013 จำกัด,45/11 หมู่ที่ 2 ถ.พุทธมณฑลสาย 5 ต.บางกระทึก อ.สามพราน จ.นครปฐม 73210,086-677-7997,ไม่มี,13.760685,100.7314653
25,เจริญใจฮาร์ดแวร์,50/180 หมู่ที่ 13 ถ.พุทธมณฑลสาย 5 ต.ไร่ขิง อ.สามพราน จ.นครปฐม 73210,,มี,13.728808,100.4323723
26,หจก. ถาวรพัฒน์วัสดุภัณฑ์,8/88 หมู่ที่ 9 ต.ไร่ขิง อ.สามพราน จ.นครปฐม 73210,,ไม่มี,,
27,สวิทโฮม#5 วัสดุก่อสร้าง,19/11 หมู่ที่ 3 ต.ศาลายา อ.พุทธมณฑล จ.นครปฐม 73170,02-444-6562,มี,13.802279,100.6457983
28,รุ่งโรจน์ค้าไม้,106/5 หมู่ที่ 2 ซ.สวนผัก 32 ถ.อัจฉริยะประดิษฐ์ ต.มหาสวัสดิ์ อ.บางกรวย จ.นนทบุรี 11130,061-832-4999,ไม่มี,13.802158,100.432537
29,บริษัท ทรัพย์รุ่งเรือง อีเล็คทริกแอนด์ซัพพลาย จำกัด,13/2 หมู่ที่ 4 ต.หนองเพรางาย อ.ไทรน้อย จ.นนทบุรี 11150,,ไม่มี,13.885574,100.326282
30,บริษัท เอส.ซี.พี. โปรเกรส จำกัด,58 หมู่ที่ 4 ต.ดอนไก่ดี อ.กระทุ่มแบน จ.สมุทรสาคร 74110,02-408-5398,ไม่มี,13.7045131,100.6005295
31,หหส. เปงเฮงฮวดสตีล,101/2-3 หมู่ที่ 11 ถ.เพชรเกษม ต.อ้อมน้อย อ.กระทุ่มแบน จ.สมุทรสาคร 74130,02-420-1475,ไม่มี,13.704155,100.327161
32,เปงเฮงฮวดสตีล,101/2-3 หมู่ที่ 11 ถ.เพชรเกษม ต.อ้อมน้อย อ.กระทุ่มแบน จ.สมุทรสาคร 74130,,ไม่มี,,
33,ร้าน ศิริชัย,180/9 ถ.สุคนธวิท ต.ตลาดกระทุ่มแบน อ.กระทุ่มแบน จ.สมุทรสาคร 74110,081-571-2709,ไม่มี,13.653441,100.6264229
34,ศุภพรฮาร์ดแวร์สโตร์,99/3-4 หมู่ที่ 4 ถ.เศรษฐกิจ 1 ต.ท่าไม้ อ.กระทุ่มแบน จ.สมุทรสาคร 74110,02-808-5499,ไม่มี,13.6803233,100.421696
35,กิตติสุขวัสดุ,190 หมู่ 6 ถ.พุทธสาคร ต.สวนหลวง อ.กระทุ่มแบน จ.สมุทรสาคร 74110,02-431-2841,มี,13.6463594,100.4974837
36,กระทุ่มแบนค้าวัสดุก่อสร้าง,46/2 หมู่ที่ 13 ต.สวนหลวง อ.กระทุ่มแบน จ.สมุทรสาคร 74110,02-811-2838,มี,13.6703231,100.4551029
37,ทรงไชยพานิช,181/28-29 หมู่ที่ 2 ต.คลองมะเดื่อ อ.กระทุ่มแบน จ.สมุทรสาคร 74110,034-460-229,มี,13.6522337,100.5216684
38,หจก. พี.ที.โฮมเพ้นท์,"1212,1214,1216 ถ.กรุงเทพ-นนทบุรี แขวงบางซื่อ เขตบางซื่อ กรุงเทพมหานคร 10800",0-2911-4498-9,มี,13.8143287,100.5318434
39,โฮม ฮาร์ดแวร์,620 ถ.โกสุมรวมใจ แขวงดอนเมือง เขตดอนเมือง กรุงเทพมหานคร 10210,02-573-6633,ไม่มี,13.912781,100.5800333
40,บริษัท ชัยเจริญการช่าง 88 จำกัด,2/3 ถ.ประชานฤมิตร แขวงบางซื่อ เขตบางซื่อ กรุงเทพมหานคร 10800,02-587-2345,ไม่มี,13.809255,100.521995
41,บริษัท ชัยเจริญฮาร์ดแวร์ 88 จำกัด,17 ถ.ประชานฤมิตร แขวงบางซื่อ เขตบางซื่อ กรุงเทพมหานคร 10800,086-100-8444,ไม่มี,13.808973,100.5663073
42,บริษัท มีพร้อมค้าไม้ จำกัด,"346/4-6, 364/8-15 ซ.ไสวสุวรรณ ถ.กรุงเทพ-นนทบุรี แขวงบางซื่อ เขตบางซื่อ กรุงเทพมหานคร 10800",02-9128275,ไม่มี,13.8117106,100.17672
43,หจก. วนาสุวรรณค้าไม้,385/28 ซ.ประชานฤมิตร ถ.ประชาราษฎร์สาย 1 แขวงบางซื่อ เขตบางซื่อ กรุงเทพมหานคร 10800,02-585-6396,ไม่มี,13.8096728,100.5262948
44,บริษัท อรัญโก้มาร์เก็ตติ้ง จำกัด,864/20 ถ.ประชาชื่น แขวงวงศ์สว่าง เขตบางซื่อ กรุงเทพมหานคร 10800,"585-2790, 587-2457",ไม่มี,13.8262717,102.0624642
45,บริษัท แพล็ตตินั่ม วูด จำกัด,527/4 ซ.ไสวสุวรรณ ถ.กรุงเทพ-นนท์ แขวงบางซื่อ เขตบางซื่อ กรุงเทพมหานคร 10800,02-911-4949,ไม่มี,13.8119521,100.5278643
46,หจก. เกรียงไกรค้าไม้,408/1 ถ.ประชานฤมิตร แขวงบางซื่อ เขตบางซื่อ กรุงเทพมหานคร 10800,"02-585-2552, 585-6735",ไม่มี,13.8100963,100.5218034
47,บริษัท ทีค คัลเลอร์ จำกัด,368 ถ.ประชานฤมิตร แขวงบางซื่อ เขตบางซื่อ กรุงเทพมหานคร 10800,02-556-1293-4,มี,13.8099497,100.5287624
48,หจก. เจาฮั้วเฮงค้าไม้,2/4-5 ถ.ประชานฤมิตร แขวงบางซื่อ เขตบางซื่อ กรุงเทพมหานคร 10800,02-912-9081,ไม่มี,13.8095166,100.5248641
49,ชัยรุ่งเรืองพาณิชย์,1148-1150 ถ.กรุงเทพ-นนทบุรี แขวงบางซื่อ เขตบางซื่อ กรุงเทพมหานคร 10800,02-585-9557,ไม่มี,13.8138551,100.5317843
50,ร้าน โรงกลึงไม้หลักชัย,1068-1074 ถ.ประชาราษฎร์ 1 แขวงบางซื่อ เขตบางซื่อ กรุงเทพมหานคร 10800,,ไม่มี,,
51,ชาญชัย ฮาร์ดแวร์,88 ถ.สรงประภา แขวงสีกัน เขตดอนเมือง กรุงเทพมหานคร 10210,,ไม่มี,13.922978,100.5828443
52,คุณพรชัย รอดประเสริฐ,97 ซ.เทิดราชัน 23 (ดาวทอง 3) ถ.เทิดราชัน แขวงสีกัน เขตดอนเมือง กรุงเทพมหานคร 10210,083-054-5542,ไม่มี,13.954913,100.583837
53,บริษัท พรไพศาล พัฒนา(บางกรวย) จำกัด,117/2 หมู่ที่ 2 ต.บางสีทอง อ.บางกรวย จ.นนทบุรี 11130,,ไม่มี,,
54,บริษัท พรไพศาล พัฒนา (บางใหญ่) จำกัด,37/20 หมู่ที่ 2 ต.บางเลน อ.บางใหญ่ จ.นนทบุรี 11140,02-921-6714-6,ไม่มี,13.868313,100.437352
55,วัสดุก่อสร้างไทยนำแสง,7/1 หมู่ที่ 1 ต.คลองขวาง อ.ไทรน้อย จ.นนทบุรี 11150,02-9224447,ไม่มี,13.982791,100.3203293
56,หจก.สุขเจริญ ซีเมนต์,99/1 หมู่ที่ 1 ถ.บ้านกล้วย-ไทรน้อย ต.ไทรน้อย อ.ไทรน้อย จ.นนทบุรี 11150,02-926-8188,ไม่มี,13.9517126,100.3464176
57,บริษัท มีพร้อมค้าไม้ ราชพฤกษ์ จำกัด,19/11 หมู่ 5  ต.บางรักน้อย อ.เมืองนนทบุรี จ.นนทบุรี 11000,"02-595-8430, 02-595-8439",มี,13.8857154,100.6027519
58,คุณเอกสิทธิ์ พฤกษ์สถาพร,5/14-15 หมู่ที่ 6 ถ.บางกรวย-ไทรน้อย ต.ไทรน้อย อ.ไทรน้อย จ.นนทบุรี 11150,089-202-7033,มี,13.978984,99.6390113
59,ส.เคหะภัณฑ์,45/36-38 ซ.รุ่งประชา ถ.เทอดพระเกียรติ ต.วัดชลอ อ.บางกรวย จ.นนทบุรี 11130,02-860-5001,มี,13.7896149,100.5627565
60,ร้าน นวสิริปิ่นเกล้า,118/1 หมู่ที่ 1 ถ.ราชพฤกษ์ ต.บางขุนกอง อ.บางกรวย จ.นนทบุรี 11130,02-4233307,ไม่มี,13.8187428,100.4799562
61,บริษัท วิรุฬห์รัตน์ โมเดิร์น มาร์ท จำกัด,96/2-3 หมู่ 6 ต.บางกรวย อ.บางกรวย จ.นนทบุรี 11130,446-0092,ไม่มี,13.8075721,100.4499567
62,จงเจริญค้าวัสดุ,65/23 หมู่ที่ 5 ซ.แก้วอินทร์สุธาอุทิศ ถ.กาญจนาภิเษก ต.เสาธงหิน อ.บางใหญ่ จ.นนทบุรี 11140,,ไม่มี,13.8711935,100.394649
63,บริษัท ทรัพย์อนันต์บางใหญ่ จำกัด,4/4 หมู่ที่ 2 ถ.บางใหญ่-บางคูลัด ต.บางใหญ่ อ.บางใหญ่ จ.นนทบุรี 11140,081-911-6183,มี,13.84629,100.39226
64,บริษัท จันทรสถาพร วัสดุก่อสร้าง จำกัด,65/1 หมู่ 6 ถ.บางกรวย-ไทรน้อย ต.บางกรวย อ.บางกรวย จ.นนทบุรี 11130,02-883-9263,มี,13.8064759,100.5281858
65,บริษัท สมาร์ท โฮม เพ้นท์ จำกัด,94/171 หมู่บ้าน สิวารัตน์ 9 หมู่ที่ 11 ต.บางบัวทอง อ.บางบัวทอง จ.นนทบุรี 11110,099-249-1333,ไม่มี,,
66,บริษัท สินวัฒนาค้าวัสดุก่อสร้าง จำกัด,99/9 ม.1 ต.บางขนุน อ.บางกรวย จ.นนทบุรี 11130,081-6353433,ไม่มี,13.8183702,100.5323515
67,บริษัท วินัย และ ดนัย อลูมิเนียม จำกัด,"293/5-8,10,12,14,15 ซ.ประชาอุทิศ 69 แขวงบางมด เขตทุ่งครุ กรุงเทพมหานคร 10140",02-817-0354-5,ไม่มี,13.648302,100.5134634
68,ร้าน รุ่งโรจน์วัฒนา,45/5-9 หมู่ที่ 1 แขวงจอมทอง เขตจอมทอง กรุงเทพมหานคร 10150,02-460-1127-9,ไม่มี,13.699062,100.4681636
69,บริษัท โรแยลโฮม จำกัด,252 ถนนพุทธบูชา แขวงบางมด เขตทุ่งครุ กรุงเทพมหานคร 10140,02-415-6849,มี,13.6504327,100.4796555
70,บริษัท ประสงค์กิจซิเมนต์ (1988) จำกัด,"681,683 ถ.สมเด็จพระเจ้าตากสิน แขวงสำเหร่ เขตธนบุรี กรุงเทพมหานคร 10600","02-4763451, 4681143",มี,13.7047848,102.5095965
71,อรุณโรจน์เคหะภัณฑ์,2/19-20 หมู่ที่ 10 ถ.เอกชัย แขวงบางขุนเทียน เขตจอมทอง กรุงเทพมหานคร 10150,02-893-8213,มี,13.6961399,100.6733338
72,ชัยชนะวัสดุภัณฑ์,222 ถ.พุทธบูชา แขวงบางมด เขตทุ่งครุ กรุงเทพมหานคร 10140,02-4263973,มี,13.650983,100.476777
73,บริษัท โตสมบูรณ์ กรุ๊ป จำกัด,257 ซ.สมเด็จเจ้าพระยา 17 แขวงคลองสาน เขตคลองสาน กรุงเทพมหานคร 10600,02-005-1006,ไม่มี,13.698966,100.4665713
74,นวกิจพาณิชย์เพ้นท์ติ้ง,11/71 หมู่ที่ 5 ต.บางขุนกอง อ.บางกรวย จ.นนทบุรี 11130,086-401-3131,ไม่มี,13.755083,100.471583
75,รวมกิจเจริญซัพพลาย,555/70-71 หมู่ที่ 1 ซ.มังกร-ขันดี ถ.เทพารักษ์ ต.แพรกษาใหม่ อ.เมืองสมุทรปราการ จ.สมุทรปราการ 10280,088-755-0791,ไม่มี,13.60313,100.66046
76,บริษัท แคปปิตัลซีเรียลส์ จำกัด,118 หมู่ที่ 9 ต.สำโรง อ.พระประแดง จ.สมุทรปราการ 10130,02-748-5331,ไม่มี,,
77,เจริญกิจค้าวัสดุ,1398/1 ถ.ทรงธรรม ต.ตลาด อ.พระประแดง จ.สมุทรปราการ 10130,02-462-6992,ไม่มี,,
78,บริษัท ศ.รุ่งอนันต์ จำกัด,226/6-7 หมู่ที่ 5 ถ.ศรีนครินทร์ ต.บางเมือง อ.เมืองสมุทรปราการ จ.สมุทรปราการ 10270,02-759-9672-3,ไม่มี,13.6103146,100.7015253
79,บริษัท อุดมโชคพัฒนา จำกัด,114 หมู่ที่ 2 ถ.สุขุมวิท ต.ท้ายบ้าน อ.เมืองสมุทรปราการ จ.สมุทรปราการ 10280,"323-3804, 323-3806",ไม่มี,13.543534,99.33309
80,บริษัท รุ่งศิริซัพพลาย จำกัด,188/4 ถ.สายลวด ต.ปากน้ำ อ.เมืองสมุทรปราการ จ.สมุทรปราการ 10280,02-701-6500,ไม่มี,13.5797924,100.5758741
81,บริษัท ทรี เจ โฮม จำกัด,107/6 หมู่ที่ 3 ถ.สุขสวัสดิ์ ต.ปากคลองบางปลากด อ.พระสมุทรเจดีย์ จ.สมุทรปราการ 10290,"02-425-8147, 02-425-9963",ไม่มี,13.594466,100.579053
82,บริษัท อุตสาหกรรมไม้ ส.ชัยวัฒนา จำกัด,447 หมู่ 2 ถ.บางพลี-ตำหรุ ต.แพรกษาใหม่ อ.เมืองสมุทรปราการ จ.สมุทรปราการ 10280,02-182-2093-5,มี,13.5608584,99.8295805
83,หจก. สุวรรณปีติ,484 หมู่ 4 ต.บ้านคลองสวน อ.พระสมุทรเจดีย์ จ.สมุทรปราการ 10290,02-4616392-3,มี,13.582392,100.5487753
84,บริษัท ศรีอำพล ค้าวัสดุก่อสร้าง จำกัด,659 หมู่ที่ 7 ต.บางปูใหม่ อ.เมืองสมุทรปราการ จ.สมุทรปราการ 10280,02-3239399,มี,13.535577762748796,100.62885921534438
85,โชคพาณิชย์ เคหะภัณฑ์,112/2-4 หมู่ที่ 5 ถ.ศรีนครินทร์ ต.บางเมือง อ.เมืองสมุทรปราการ จ.สมุทรปราการ 10270,099-282-2924,ไม่มี,13.618505,100.62192
86,บริษัท บิลด์สมาร์ท จำกัด,288 หมู่ที่ 6 ถ.ตำหรุ-บางพลี ต.แพรกษาใหม่ อ.เมืองสมุทรปราการ จ.สมุทรปราการ 10280,02-183-8558-9,มี,13.536145509641328,100.68898
87,เอส.เอ็ม.เทรดดิ้ง,501/9 หมู่ที่ 3 ถ.แพรกษา ต.แพรกษา อ.เมืองสมุทรปราการ จ.สมุทรปราการ 10280,02-701-4284,มี,13.574372,100.8997143
88,ร้าน วณิชภัณฑ์,103 ม.10 ถ.สุขสวัสดิ์ ต.ลัดหลวง อ.พระประแดง จ.สมุทรปราการ 10130,02-462-6793,มี,13.6407491,100.6044719
89,ตะวันซุปเปอร์มาร์เก็ตแอนด์ฮาร์ดแวร์,71/55 หมู่ที่ 6 ถ.เพ็ชรหึงษ์ ต.บางยอ อ.พระประแดง จ.สมุทรปราการ 10130,02-819-6600,ไม่มี,13.675873,100.559625
90,นำชัยฮาร์ดแวร์,9/8-11 หมู่ที่ 5 ถ.สุขุมวิท ต.ท้ายบ้าน อ.เมืองสมุทรปราการ จ.สมุทรปราการ 10280,02-3895291,ไม่มี,13.5646955,100.3277625
91,บริษัท อมรเคหะกิจ จำกัด,161 ถ.อุดมสุข แขวงหนองบอน เขตประเวศ กรุงเทพมหานคร 10250,02-396-0008,มี,13.6778185,100.6452466
92,บริษัท กิจเจริญวัฒนาโลหะภัณฑ์ จำกัด,454-462 ถ.เทพรัตน แขวงบางนาใต้ เขตบางนา กรุงเทพมหานคร 10260,02-399-4050-55,มี,13.670051,1006209739
93,บริษัท ส.รุ่งเรืองเพนท์ จำกัด,882 ซ.อุดมสุข 48 ถ.อุดมสุข แขวงบางนาเหนือ เขตบางนา กรุงเทพมหานคร 10260,"746-6050-9, 251-5833",มี,13.6779912,100.6779912
94,บริษัท นวศิริ คอนแทรคติ้ง จำกัด,4543/7 ถ.สุขุมวิท แขวงบางนา เขตบางนา กรุงเทพมหานคร 10260,02-393-7099,ไม่มี,13.6585311,100.6013431
95,บริษัท ฮาร์ดแวร์เฮาส์ จำกัด (สาขาศรีราชา),99/25-27 หมู่ที่ 10 ต.หนองขาม อ.ศรีราชา จ.ชลบุรี 20230,038-320900,มี,13.1358844,100.9857526
96,บริษัท ฮาร์ดแวร์เฮาส์ จำกัด (สาขาอมตะนคร),89/1-2 หมู่ที่ 2 ต.บ้านเก่า อ.พานทอง จ.ชลบุรี 20160,02-707-2222,มี,13.4476333,101.027372
97,บริษัท ฮาร์ดแวร์เฮาส์ จำกัด (สาขาบ่อวิน),898/8-9 หมู่ที่ 8 ต.เขาคันทรง อ.ศรีราชา จ.ชลบุรี 20110,02-707-2222,มี,13.0869585,101.1685089
98,บริษัท ศรีบุญมา โฮมแคร์ จำกัด,89/11 หมู่ที่ 10 ต.บางกร่าง อ.เมืองนนทบุรี จ.นนทบุรี 11000,02-5954467-9,มี,13.8522195,100.4491901
99,บริษัท อมรสีสวย จำกัด,39/251 หมู่ที่ 4 ต.บึงคำพร้อย อ.ลำลูกกา จ.ปทุมธานี 12150,089-477-8831,มี,13.9647366,100.7407764
100,บริษัท ฮาร์ดแวร์เฮาส์ จำกัด (สาขาระยอง),599 หมู่ที่ 6  ต.มะขามคู่ อ.นิคมพัฒนา จ.ระยอง 21180,,มี,12.8327279,101.1265289
101,บริษัท ฮาร์ดแวร์เฮาส์ จำกัด,89/9 หมู่ที่ 7 ถ.เทพรัตน กม.25 ต.บางเสาธง อ.บางเสาธง จ.สมุทรปราการ 10570,02-705-5335,มี,13.5902655,100.8275979
102,บริษัท ฮาร์ดแวร์เฮาส์ จำกัด (สาขาเทพารักษ์),8/15 หมู่ที่ 11 ต.บางปลา อ.บางพลี จ.สมุทรปราการ 10540,02-707-2222,มี,13.590491,100.82753
103,บริษัท ฮาร์ดแวร์เฮาส์ จำกัด (สาขาอนันตภัณฑ์บางพลี),59/15-16 หมู่ที่ 1 ต.ราชาเทวะ อ.บางพลี จ.สมุทรปราการ 10540,"02-705-5335, 02-316-9394",ไม่มี,13.634677,100.71037
104,บริษัท โสภณชัยเพ้นท์ จำกัด,"15,17 ถ.วุฒากาศ แขวงตลาดพลู เขตธนบุรี กรุงเทพมหานคร 10600",02-465-8335,มี,13.71876,100.4724511
105,ร้าน ที เค ฮาร์ดแวร์,42/305 ถ.เลียบคลองภาษีเจริญฝั่งเหนือ 8/1 แขวงหนองแขม เขตหนองแขม กรุงเทพมหานคร 10160,083-999-9235,ไม่มี,13.6897921,100.3700652
106,เอส เอส ฮาร์ดแวร์,42/284 ซ.เลียบคลองภาษีเจริญฝั่งเหนือ8/1 แขวงหนองแขม เขตหนองแขม กรุงเทพมหานคร 10160,083-999-9235,มี,13.689788,100.370025
107,แฮปปี้คัลเลอร์,1022/31 ถ.เจริญนคร แขวงบางลำภูล่าง เขตคลองสาน กรุงเทพมหานคร 10600,02-437-8096,มี,13.7114437,100.4995473
108,บริษัท มิตรเกษม ฮาร์ดแวร์ จำกัด,519/152 ถ.ประชาอุทิศ แขวงทุ่งครุ เขตทุ่งครุ กรุงเทพมหานคร 10140,02-815-9565,มี,13.615375,100.510445
109,ไพศาลฮาร์ดแวร์,"629,631 ถ.เจริญนคร แขวงบุคคโล เขตธนบุรี กรุงเทพมหานคร 10600",02-468-4137,ไม่มี,13.698966,100.4665713
110,บริษัท อภิพิมพ์ชัย จำกัด,634/3 ถ.บางขุนเทียน-ชายทะเล แขวงท่าข้าม เขตบางขุนเทียน กรุงเทพมหานคร 10150,02-453-6224,มี,13.609506,100.4065986
111,บริษัท ธนัชโลหะภัณฑ์ จำกัด,439 ซ.พระรามที่ 2 ซ. 28 แขวงจอมทอง เขตจอมทอง กรุงเทพมหานคร 10150,086-369-8200,มี,13.691181,100.464039
112,ไทยรุ่งโรจน์,"334,336,338 ถ.พระรามที่ 2 แขวงแสมดำ เขตบางขุนเทียน กรุงเทพมหานคร 10150",02-451-4710,ไม่มี,13.6504088,100.4797322
113,บริษัท สีแสงพลอย จำกัด,215 ถ.ราษฏร์พัฒนา แขวงบางปะกอก เขตราษฎร์บูรณะ กรุงเทพมหานคร 10140,02-4276343,ไม่มี,13.6765803,100.6609583
114,บริษัท เจริญกิจรุ่งเรืองฮาร์ดแวร์ จำกัด,259 ถ.ประชาอุทิศ แขวงทุ่งครุ เขตทุ่งครุ กรุงเทพมหานคร 10140,02-426-1749,ไม่มี,13.6260621,100.5044746
115,บริษัท สมบัติ โฮมมาร์ท จำกัด,39/69 หมู่ที่ 12 ต.ไร่ขิง อ.สามพราน จ.นครปฐม 73210,02-811-8260-2,มี,13.7563437,100.3007343
116,หมวยฮาร์ดแวร์,50/161 หมู่ที่ 13 ถ.พุทธมณฑลสาย 5 ต.ไร่ขิง อ.สามพราน จ.นครปฐม 73210,02-019-9177,มี,13.730313,100.2972433
117,ชัยมงคลเคหะภัณฑ์,152/15-18 หมู่ที่ 1 ต.นครชัยศรี อ.นครชัยศรี จ.นครปฐม 73120,034-331-530,มี,13.8014941,100.1850454
118,ชัยมงคล ฮาร์ดแวร์,77/61 หมู่ 3  ต.บางกระเบา อ.นครชัยศรี จ.นครปฐม 73120,089-811-6494,ไม่มี,13.7981318,100.4351763
119,รุ่งเรืองค้าวัสดุก่อสร้าง,38 หมู่ที่ 4  ต.วัดแค อ.นครชัยศรี จ.นครปฐม 73120,034-338714,มี,13.811597,100.5263
120,บริษัท ทรัพย์งิ้วรายเทรดดิ้งส์ จำกัด,11/14 หมู่ 3 ต.งิ้วราย อ.นครชัยศรี จ.นครปฐม 73120,034-299551-2,มี,13.8034085,100.7235048
121,ท.กุลงามฮาร์ดแวร์,19/43 หมู่ที่ 5 ต.ศาลายา อ.พุทธมณฑล จ.นครปฐม 73170,034-246-599,มี,13.806201,100.7254553
122,บริษัท พี เอ็น เอส เมเนจเม้นท์ จำกัด,40/83-84 หมู่ที่ 6  ต.บางกระทึก อ.สามพราน จ.นครปฐม 73210,02-889-5069,มี,13.7852781,100.6750029
123,บริษัท วี.คัลเลอร์ส เทรดดิ้ง จำกัด,166 หมู่ที่ 17 ซ.นิคมอุตสาหกรรม 3 ถ.บางนา-ตราด ต.บางเสาธง อ.บางเสาธง จ.สมุทรปราการ 10570,02-385-7540,มี,13.576437,100.79844
124,ฮาร์ดแวร์บางปู,888/6-8 หมู่ที่ 3 ถ.สุขุมวิท ต.บางปูใหม่ อ.เมืองสมุทรปราการ จ.สมุทรปราการ 10280,02-323-1180,มี,13.51857,100.67189
125,รัตนแสง,9/22 หมู่ที่ 1 ถ.สุขุมวิท ต.บางปูใหม่ อ.เมืองสมุทรปราการ จ.สมุทรปราการ 12070,02-323-3315,มี,13.532636,99.9645383
126,บริษัท นัฐวรรณค้าวัสดุก่อสร้าง จำกัด,1199 หมู่ 1 ถ.สุขุมวิท ต.ท้ายบ้าน อ.เมืองสมุทรปราการ จ.สมุทรปราการ 10280,02-701-2500-2,มี,13.7582191,100.5569623
127,บริษัท กูรูเพ้นท์ แอนด์ ฮาร์ดแวร์ จำกัด,899/27 หมู่ที่ 9 ถ.ประชาอุทิศ  ต.ในคลองบางปลากด อ.พระสมุทรเจดีย์ จ.สมุทรปราการ 10290,095-947-9686,มี,13.5763566,100.0789858
128,บริษัท คอนแทรคเตอร์ ช๊อป จำกัด,17/67 หมู่ที่ 10 ถ.ปู่เจ้าสมิงพราย ต.สำโรงใต้ อ.พระประแดง จ.สมุทรปราการ 10130,02-7576889,ไม่มี,13.6489796,100.5643127
129,บริษัท พร้อมพันธ์ อินดัสตรี (2004) จำกัด,620 หมู่ที่ 1 ถ.ทางรถรางเก่า ต.สำโรงเหนือ อ.เมืองสมุทรปราการ จ.สมุทรปราการ 10270,02-748-5704,มี,13.6526118,100.2742203
130,บริษัท เฉลิมวิเชียร เทรดดิ้ง จำกัด,"372,372/1 หมู่ที่ 6 ถ.สุขสวัสดิ์ ต.ในคลองบางปลากด อ.พระสมุทรเจดีย์ จ.สมุทรปราการ 10290",02-425-1138-9,มี,13.5814643,100.8363049
131,หจก. สุขสวัสดิ์ เพ้นท์ แอนด์ ฮาร์ดแวร์,302/15-16 หมู่ที่ 19 ถ.สุขสวัสดิ์ ต.บางพึ่ง อ.พระประแดง จ.สมุทรปราการ 10130,02-462-6347,มี,13.6522209,100.5216635
132,หจก. สหสินค้าไม้,90/4 หมู่ที่ 1 ถ.สุขสวัสดิ์ ต.แหลมฟ้าผ่า อ.พระสมุทรเจดีย์ จ.สมุทรปราการ 10290,02-815-3598-9,มี,13.5796973,100.5758435
133,หจก. กาญจนาเพ้นท์,126/1 ถ.สุขุมวิท ต.ปากน้ำ อ.เมืองสมุทรปราการ จ.สมุทรปราการ 10270,756-5834-5,มี,13.6151296,100.5107967
134,นายดิษฐพร แซ่ภู (ร้านด่านเจริญฮาร์ดแวร์),10/317 หมู่ 3 ต.สำโรงเหนือ อ.เมืองสมุทรปราการ จ.สมุทรปราการ 10270,087-352-3033,มี,13.637302,100.4163353
135,ไทโฮมเพ้นท์,589 หมู่ที่ 2 ต.บ้านคลองสวน อ.พระสมุทรเจดีย์ จ.สมุทรปราการ 10290,084-001-1009,มี,13.585893,100.6094973
136,บริษัท พัฒนาพานิช 2018 จำกัด,112 หมู่ที่ 6 ต.อ้อมน้อย อ.กระทุ่มแบน จ.สมุทรสาคร 74130,085-290-6305,มี,13.706519,100.2971103
137,บริษัท ศรีพรภิภัทร จำกัด,92/2-4 หมู่ 12 ถ.เพชรเกษม ต.อ้อมน้อย อ.กระทุ่มแบน จ.สมุทรสาคร 74130,"02-812-8841-2, 02-812-8858-9",มี,13.704243,100.5227423
138,หจก. กษิดิ์เดช เทรดดิ้ง,30/6-30/7 หมู่ 5 ถ.แคราย-วัดศรีนวล ต.แคราย อ.กระทุ่มแบน จ.สมุทรสาคร 74110,034-866734,มี,13.6734312,100.4047058
139,บริษัท ธนาสร แอนด์ ธีรวัฒน์ ฮาร์ดแวร์ จำกัด,33/80 หมู่ 10 ถ.พุทธมณฑลสาย 4 ต.อ้อมน้อย อ.กระทุ่มแบน จ.สมุทรสาคร 74130,02-813-0075-6,มี,13.716784,100.6549503
140,ร้าน สุพรรณฮาร์ดแวร์ เอสพี แมชชีนเนอรี่,178/1 ถ.ประชานฤมิตร แขวงบางซื่อ เขตบางซื่อ กรุงเทพมหานคร 10800,"02-585-4101, 02-587-2670",มี,13.809593,100.525829
141,บริษัท เอสเคซี โฮม เซ็นเตอร์ จำกัด,"144,146,148,150,152,154,156 ถ.ประชานฤมิตร แขวงบางซื่อ เขตบางซื่อ กรุงเทพมหานคร 10800",,มี,13.809449,100.525206
142,บริษัท ต.ยิ่งเจริญ 1991 จำกัด,427/30-32 ถ.ประชาราษฎร์ 2 แขวงบางซื่อ เขตบางซื่อ กรุงเทพมหานคร 10800,02-5874157,มี,13.8064317,100.5281482
143,หจก. ไต่เส็งเฟอร์นิเจอร์,75/1-5 ซอยประชานฤมิตร ถ.ประชาราษฎร์สาย1 แขวงบางซื่อ เขตบางซื่อ กรุงเทพมหานคร 10800,586-7852,ไม่มี,13.8094777,100.5245864
144,หจก. ต.ยิ่งเจริญซัพพลาย,1126-8 ถ.กรุงเทพ-นนทบุรี แขวงบางซื่อ เขตบางซื่อ กรุงเทพมหานคร 10800,"911-4068, 585-3595",ไม่มี,13.8138157,100.5317855
145,บริษัท สุวิทย์การค้า (บางโพ) จำกัด,12 ถ.ประชานฤมิตร  แขวงบางซื่อ เขตบางซื่อ กรุงเทพมหานคร 10800,02-5855891,ไม่มี,13.808994,100.5205463
146,บริษัท ไต่เส็งวู้ดแลนด์ จำกัด,39 ซ.ไสวสุวรรณ แขวงบางซื่อ เขตบางซื่อ กรุงเทพมหานคร 10800,02-585-9610-1,ไม่มี,13.810131,100.5274663
147,บริษัท บางโพ ออลล์ ฮาร์ดแวร์ จำกัด,9 ถ.ประชานฤมิตร  แขวงบางซื่อ เขตบางซื่อ กรุงเทพมหานคร 10800,02-587-1701,ไม่มี,13.809167,100.5202143
148,บริษัท จ.จิรัฐิการ จำกัด,61 ซ.อินทามระ 22 ถ.สุทธิสารวินิจฉัย แขวงรัชดาภิเษก เขตดินแดง กรุงเทพมหานคร 10400,02-277-0082,ไม่มี,13.7695845,100.4264141
149,บริษัท นำชัยค้าวัสดุภัณฑ์ จำกัด,196 ถ.เฉลิมพระเกียรติ ร.9 แขวงหนองบอน เขตประเวศ กรุงเทพมหานคร 10250,02-361-5874,ไม่มี,13.678919,100.664493
150,จ.จิรัฐิการ,65 ซ.อินทามระ 22 ถ.สุทธิสารวินิจฉัย แขวงรัชดาภิเษก เขตดินแดง กรุงเทพมหานคร 10400,02-691-9825,ไม่มี,13.7863244,100.6297218
151,บริษัท สุพรรณ วู้ดแลนด์ จำกัด,323 ถ.ประชานฤมิตร แขวงบางซื่อ เขตบางซื่อ กรุงเทพมหานคร 10800,02-585-4101,ไม่มี,13.8096126,100.5257425
152,บริษัท เจริญสิทธิภัณฑ์ฮาร์ดแวร์ จำกัด,1372 ถ.กรุงเทพ-นนทบุรี แขวงบางซื่อ เขตบางซื่อ กรุงเทพมหานคร 10800,02-911-5632,มี,13.8183524,100.5323622
153,หสน. เอกไทยพาณิชย์,83 ถ.พระราม 4 แขวงป้อมปราบ เขตป้อมปราบศัตรูพ่าย กรุงเทพมหานคร 10100,221-5785,ไม่มี,13.7394566,100.513502
154,บริษัท จิระธนสุวรรณ จำกัด,978 ถนนกรุงเกษม แขวงวัดโสมนัส เขตป้อมปราบศัตรูพ่าย กรุงเทพมหานคร 10100,"02-282-0390, 02-282-0361",มี,13.757096,100.515697
155,หจก. แสงสยามฮาร์ดแวร์,954 ถ.อุดมสุข แขวงบางนาเหนือ เขตบางนา กรุงเทพมหานคร 10260,02-748-8836,ไม่มี,,
156,บริษัท คัลเลอร์ โฮม จำกัด,"806,808 ถ.ลาซาล แขวงบางนาใต้ เขตบางนา กรุงเทพมหานคร 10260",02-7487038-39,มี,13.657925,100.4114733
157,หจก. ไทยร่วมกิจค้าไม้,548/3-4-5 ซอยไสวสุวรรณ ถ.กรุงเทพ-นนทบุรี แขวงบางซื่อ เขตบางซื่อ กรุงเทพมหานคร 10800,"02-5850580, 5867915",ไม่มี,13.8117181,100.7172291
158,บริษัท ธนูทัยคาร์เพนท์เซนเตอร์ (1992) จำกัด,1532-1532/1 ถ.กรุงเทพ-นนทบุรี แขวงบางซื่อ เขตบางซื่อ กรุงเทพมหานคร 10800,02-585-9884,ไม่มี,13.820924,100.8431253
159,บริษัท วสันต์ ดิสทริบิวชั่น จำกัด,104 ถ.ประชานฤมิตร แขวงบางซื่อ เขตบางซื่อ กรุงเทพมหานคร 10800,02-585-4255,ไม่มี,13.8094353,100.5240384
160,บริษัท รุ่งสมบัติ (2528) จำกัด,572 ถ.ประชาราษฎร์ สาย 1 แขวงบางซื่อ เขตบางซื่อ กรุงเทพมหานคร 10800,"587-3571, 585-2574",ไม่มี,13.8086224,100.818941
161,ร้าน ส.สิริวัสดุภัณฑ์,109 หมู่ที่ 6 ถ.อ่อนนุช แขวงประเวศ เขตประเวศ กรุงเทพมหานคร 10250,,มี,13.7169123,100.6570703
162,บริษัท เจ.เค.พี. เอนจิเนียริ่ง จำกัด,89/82 หมู่ที่ 1 ถ.สุคนธสวัสดิ์ แขวงลาดพร้าว เขตลาดพร้าว กรุงเทพมหานคร 10230,,ไม่มี,13.8239541,100.4451149
163,หจก. เอกชัยฮาร์ดแวร์,1783/28 ถ.ลาดพร้าว แขวงสามเสนนอก เขตห้วยขวาง กรุงเทพมหานคร 10310,02-513-0840,ไม่มี,13.8003215,100.3446589
164,ไพรเปรมสุข,198 ถ.เฉลิมพระเกียรติ ร.9  แขวงหนองบอน เขตประเวศ กรุงเทพมหานคร 10250,02-398-2086,มี,13.6765694,100.6615621
165,บริษัท ทรัพย์วัฒนา ซัพพลายส์ จำกัด,35 ม.5 ถ.ตลิ่งชัน-สุพรรณบุรี ต.ละหาร อ.บางบัวทอง จ.นนทบุรี 11110,02-9182613-4,มี,13.9518729,100.4096248
166,บ้านสวยคัลเลอร์,84/1 หมู่ที่ 3 ถ.บางกรวย-ไทรน้อย ต.บางบัวทอง อ.บางบัวทอง จ.นนทบุรี 11110,02-922-6173,มี,13.933791774015532,100.39844639930523
167,หจก. เก้ากุล,55-55/1 หมู่ที่ 14 ถ.กาญจนาภิเษก ต.บางม่วง อ.บางใหญ่ จ.นนทบุรี 11140,02-403-3418,มี,13.8468432,100.4122696
168,มงคลโลหะไฟฟ้า,339/24 หมู่ที่ 3 ถ.บางกรวย-ไทรน้อย ต.บางรักพัฒนา อ.บางบัวทอง จ.นนทบุรี 11110,02-920-6075,มี,13.8958058,100.4304271
169,บริษัท วินน์ พีค อินเตอร์เนชั่นแนล จำกัด,99/1 หมู่ที่ 3 ต.บางขุนกอง อ.บางกรวย จ.นนทบุรี 11130,02-422-2619,มี,13.8239513,100.4450457
170,บริษัท เค.ที.ค้าไม้ จำกัด,59/5 หมู่ที่ 6 ซ.วัดลาดปลาดุก ถ.ตลิ่งชัน-สุพรรณบุรี ต.บางคูรัด อ.บางบัวทอง จ.นนทบุรี 11110,02-9789971-2,มี,13.90976,100.3208453
171,บริษัท เอส.บี.เค คอนสตรัคชั่น (1994) จำกัด,33/3 หมู่ที่ 8 ต.ไทรน้อย อ.ไทรน้อย จ.นนทบุรี 11150,"02-006-6812, 02-000-4756",ไม่มี,,
172,บริษัท มนทกานต์ศูนย์รวมบ้านเพื่อที่อยู่อาศัย จำกัด,99/15 หมู่ที่ 4 ต.บางบัวทอง อ.บางบัวทอง จ.นนทบุรี 11110,02-053-9814,ไม่มี,13.906096,100.405754
173,บริษัท บุญถาวรเคหะภัณฑ์ จำกัด,"39/25, 39/88  หมู่ 6 ต.บางรักพัฒนา อ.บางบัวทอง จ.นนทบุรี 11110",02-194-5144-6,มี,13.909412,100.3517933
174,ร้าน สุวรรณพานิช,34/1 หมู่ที่ 5 ถ.บางกรวย-ไทรน้อย ต.บางเลน อ.บางใหญ่ จ.นนทบุรี 11140,089-697-6711,ไม่มี,13.8533247,100.6350396
175,บริษัท ดุจกมล เอ็นจิเนียริ่ง จำกัด,17/519 หมู่ที่ 5 ถ.บางกรวย-ไทรน้อย ต.ไทรน้อย อ.ไทรน้อย จ.นนทบุรี 11150,02-408-2531,ไม่มี,13.87932,100.303737
176,หจก. รังษีวัฒนา,90/117-8 หมู่ที่ 5 ซ.ท่าอิฐ ถ.รัตนาธิเบศร์ ต.บางรักน้อย อ.เมืองนนทบุรี จ.นนทบุรี 11000,02-9246525,ไม่มี,13.8835772,100.5825893
177,บริษัท มายโฮม เซ็นเตอร์ จำกัด,11/4 หมู่ที่ 6 ต.คลองสาม อ.คลองหลวง จ.ปทุมธานี 12120,"02-901-1744, 02-901-1877",มี,14.0617309,100.6634067
178,ศิริรุ่งเรือง,135/11 หมู่ที่ 19 ถ.พุทธมณฑลสาย 2 แขวงศาลาธรรมสพน์ เขตทวีวัฒนา กรุงเทพมหานคร 10170,02-887-2927,มี,13.7742475,100.3947629
179,บริษัท เพชรสมาร์ท จำกัด,99/68 ถ.พุทธมณฑลสาย 1 แขวงฉิมพลี เขตตลิ่งชัน กรุงเทพมหานคร 10170,,มี,13.781199,100.43024
180,บริษัท สิทธิชัยค้าไม้และวัสดุก่อสร้าง จำกัด,"135/5,135/6 ถ.พุทธมณฑลสาย 2 แขวงศาลาธรรมสพน์ เขตทวีวัฒนา กรุงเทพมหานคร 10170",02-448-1091-2,มี,13.7734287,100.3947739
181,บริษัท มากไม้ ชุมแสง จำกัด,596 ถ.กาญจนาภิเษก แขวงบางไผ่ เขตบางแค กรุงเทพมหานคร 10160,02-455-8264-5,มี,13.7359173,100.4061235
182,บริษัท เกียรติทวีค้าไม้ จำกัด,"412, 416  ถ.รามอินทรา แขวงท่าแร้ง เขตบางเขน กรุงเทพมหานคร 10230",02-510-9977,มี,13.8529021,100.819767
183,บริษัท เบญจพล ฮาร์ดแวร์ จำกัด,151 ถ.ศิริเกษม แขวงบางไผ่ เขตบางแค กรุงเทพมหานคร 10160,02-421-5988,มี,13.737618,100.36413
184,บริษัท หลักสองโฮมมาร์ท จำกัด,1521 ถ.เพชรเกษม แขวงหลักสอง เขตบางแค กรุงเทพมหานคร 10160,02-801-3695-8,มี,13.7090719,100.3891041
185,หจก. ฮั่งเฮง โฮมเวิร์ค,"2,4 ซ.กาญจนาภิเษก 004 ถ.กาญจนาภิเษก แขวงคลองบางบอน เขตบางบอน กรุงเทพมหานคร 10150",02-893-9082,ไม่มี,13.6574375,100.4083094
186,บริษัท เจ พี เอ็ม เทรดดิ้ง จำกัด,"25,27 ซ.พระยามนธาตุฯ แยก 35 ถ.กาญจนาภิเษก  แขวงบางบอน เขตบางบอน กรุงเทพมหานคร 10150","02-4170316-9, 4512001",ไม่มี,13.6564773,101.0529971
187,บริษัท เดอะ ซีเมนต์ จำกัด,1519 ถ.เพชรเกษม แขวงหลักสอง เขตบางแค กรุงเทพมหานคร 10160,02-455-4434,ไม่มี,13.709006,100.818167
188,บริษัท เจเพ้นท์ แอนด์ แมชชินเนอรี่ จำกัด,"486,488 ซ.พระรามที่ 2 ซอย 43 ถ.พระราม 2 แขวงบางมด เขตจอมทอง กรุงเทพมหานคร 10150",02-451-9454-5,ไม่มี,13.6700719,100.6209756
189,บริษัท ไทยโฮมเพ้นท์ เซ็นเตอร์ จำกัด,794 ถ.เอกชัย แขวงคลองบางพราน เขตบางบอน กรุงเทพมหานคร 10150,02-894-2435-6,มี,13.6636786,100.4068217
190,ร้าน เป็นหนึ่ง,629 ถ.พุทธมณฑลสาย 1 แขวงบางด้วน เขตภาษีเจริญ กรุงเทพมหานคร 10160,085-9169639,มี,13.7262122,100.4278763
191,นพรัตน์ เคหะภัณฑ์,40/5-6 หมู่ 10 ถ.เพชรเกษม แขวงบางไผ่ เขตบางแค กรุงเทพมหานคร 10160,02-455-2965,มี,13.7374472,100.3953596
192,บริษัท ตรีเพชรค้าวัสดุก่อสร้าง จำกัด,5 หมู่ 9 ถ.พุทธมณฑลสาย 2 แขวงทวีวัฒนา เขตทวีวัฒนา กรุงเทพมหานคร 10170,02-887-1314-6,มี,13.7519947,100.4464624
193,บริษัท ต.ณรงค์ วัสดุภัณฑ์ จำกัด,102 ซ.จันทน์ 27 ถ.จันทน์ แขวงทุ่งวัดดอน เขตสาทร กรุงเทพมหานคร 10120,"02-211-2269, 0-2454-8833",มี,13.7039981,100.3435167
194,บริษัท ที.พี.กรีนเฮ้าส์ จำกัด,848 ถ.เอกชัย แขวงบางบอน เขตบางบอน กรุงเทพมหานคร 10150,02-895-1139,ไม่มี,13.660158,101.4350123
195,บริษัท ซี บอร์น ซัพพลาย จำกัด,1582 ซ.เอกชัย 109 ถ.เอกชัย แขวงบางบอนใต้ เขตบางบอน กรุงเทพมหานคร 10150,02-450-6365,มี,13.8487024,100.7945477
196,บริษัท ป.ศิริวงศ์ วัสดุภัณฑ์ จำกัด,"487,489 ถ.พหลโยธิน แขวงอนุสาวรีย์ เขตบางเขน กรุงเทพมหานคร 10220",038-354-346,มี,13.8899487,100.5242809
197,บริษัท พรรณรัตนพงศ์ จำกัด,"6,8 ซ.กาญจนาภิเษก 008 แขวงบางแค เขตบางแค กรุงเทพมหานคร 10160","02-803-3031, 803-2770",มี,13.690725,100.5023623
198,จ. ทรัพย์ทวีคูณ,18/10 หมู่ 1 ถ.พุทธมณฑลสาย 3 แขวงทวีวัฒนา เขตทวีวัฒนา กรุงเทพมหานคร 10170,02-431-5128,มี,13.757578,100.9911273
199,บริษัท ยิ่งเจริญ คอนสตรัคชั่น จำกัด,18 ถ.ราชพฤกษ์ แขวงบางพรม เขตตลิ่งชัน กรุงเทพมหานคร 10170,,มี,13.751454,100.7859843
200,ร้าน ซัมมิทวัสดุภัณฑ์,"384,386,388 ถ.สุขาภิบาล 5 แขวงท่าแร้ง เขตบางเขน กรุงเทพมหานคร 10220",02-519-8789,ไม่มี,13.876727,100.7178113
201,ร้าน เกียรติเจริญ วัชรพล,320 ถ.สุขาภิบาล 5 แขวงท่าแร้ง เขตบางเขน กรุงเทพมหานคร 10220,02-948-0907,ไม่มี,13.871101,100.394618
202,บริษัท สรรพสิทธ์เพ้นท์เซ็นเตอร์ จำกัด,"1100,1102 ถ.เอกชัย แขวงบางบอน เขตบางบอน กรุงเทพมหานคร 10150",02-892-2853,มี,13.635524,100.3663903
203,ร้านรวมวัสดุ,"244,246,248 ถ.จรัญสนิทวงศ์ แขวงบางอ้อ เขตบางพลัด กรุงเทพมหานคร 10700",,ไม่มี,,
204,บริษัท แนวหน้าค้าไม้ จำกัด,113-125 ซ.เอกชัย 69 ถ.เอกชัย แขวงคลองบางบอน เขตบางบอน กรุงเทพมหานคร 10150,02-8995778-81,ไม่มี,13.6764626,100.4357126
205,บริษัท โฮม กู๊ดส์ วัสดุก่อสร้าง จำกัด,26 หมู่ที่ 5 ต.คลองโยง อ.พุทธมณฑล จ.นครปฐม 73170,034-102448,มี,13.8500863,100.3035548
206,หจก. มากไม้,21/3 หมู่ที่ 1 ต.บางรักพัฒนา อ.บางบัวทอง จ.นนทบุรี 11110,02-924-4142-3,ไม่มี,13.899869,100.6312553
207,บริษัท ลิน คอนส์ โฮม คอมเพล็กซ์ จำกัด,4  ซ.รัตนาธิเบศร์ 9 ต.บางกระสอ อ.เมืองนนทบุรี จ.นนทบุรี 11000,02-5919785-7,มี,13.8599377,100.5108202
208,บริษัท ทรายทอง วัสดุภัณฑ์ จำกัด,209 ถ.ติวานนท์ ต.ท่าทราย อ.เมืองนนทบุรี จ.นนทบุรี 11000,02-580-0826,มี,13.872835,100.460071
209,บริษัท ศรีไพรค้าเหล็กและวัสดุก่อสร้าง จำกัด,51/8 หมู่ที่ 4 ต.ศาลากลาง อ.บางกรวย จ.นนทบุรี 11130,02-102-1694,ไม่มี,13.811616,100.35671
210,เสริมเจริญบางใหญ่,14/14 หมู่ที่ 6 ต.บางแม่นาง อ.บางใหญ่ จ.นนทบุรี 11140,02-496-0774,ไม่มี,,
211,บริษัท คลังวัสดุ คลอง 9 จำกัด,19/13-15 หมู่ที่ 11 ต.บึงทองหลาง อ.ลำลูกกา จ.ปทุมธานี 12150,085-210-7476,ไม่มี,13.948526,100.793867
212,รวมเจริญ วัสดุภัณฑ์,32 หมู่ 6  ต.คอกกระบือ อ.เมืองสมุทรสาคร จ.สมุทรสาคร 74000,081-172-1788,มี,13.5978147,100.7308357
213,สินสวัสดิ์ เคหะภัณฑ์,3/8 หมู่ 4 ถ.เอกชัย  ต.คอกกระบือ อ.เมืองสมุทรสาคร จ.สมุทรสาคร 74000,081-759-5165,มี,13.607757,100.4271683
214,บริษัท น่ำเฮงคอนกรีต (1992) จำกัด,569 ถ.พระรามที่ 3  แขวงบางโพงพาง เขตยานนาวา กรุงเทพมหานคร 10120,02-295-0901,ไม่มี,13.683031,100.5300603
215,บริษัท จรัสศรี จำกัด,243/1-2 ถ.พระราม 1 แขวงรองเมือง เขตปทุมวัน กรุงเทพมหานคร 10330,"02-215-2513, 215-2517",มี,13.7478459,101.145586
216,ร้าน ยงฟ้าไทย,1029/1 ถ.สุขุมวิท 71 แขวงคลองตันเหนือ เขตวัฒนา กรุงเทพมหานคร 10110,02-390-0603,มี,13.73348,100.4473203
217,ร้าน นิมิตรเคหะภัณฑ์,1029/1 ถ.สุขุมวิท71 แขวงคลองตันเหนือ เขตวัฒนา กรุงเทพมหานคร 10110,092-256-1945,ไม่มี,13.7335494,100.5972798
218,เอส.พี.ฮาร์ดแวร์,294-296-298 ถ.มิตรพันธ์ แขวงป้อมปราบ เขตป้อมปราบศัตรูพ่าย กรุงเทพมหานคร 10100,,มี,13.742465,100.513862
219,กรินทร์ทูลล์,495 ถ.มหาพฤฒาราม แขวงมหาพฤฒาราม เขตบางรัก กรุงเทพมหานคร 10500,02-238-3580,ไม่มี,13.733348,100.515987
220,บริษัท น่ำเฮงศิลา จำกัด,569 ถ.พระรามที่ 3 แขวงบางโพงพาง เขตยานนาวา กรุงเทพมหานคร 10120,02-295-0901-10,ไม่มี,13.682351,100.2708433
221,หจก. กู๊ดเพ้นท์ มาสเตอร์,608/60-61 ถ.สาธุประดิษฐ์ แขวงบางโพงพาง เขตยานนาวา กรุงเทพมหานคร 10120,02-682-4378,มี,13.682988,100.5225423
222,ลี้ซู่ตังค้าไม้,466 ถ.ริมทางรถไฟสายปากน้ำ แขวงคลองเตย เขตคลองเตย กรุงเทพมหานคร 10110,02-249-2400,มี,13.7144132,100.6952684
223,บริษัท ทรัพย์ยืนยงเพ้นท์ (1991) จำกัด,2621/9-10 ถนนพระราม 4 แขวงคลองเตย เขตคลองเตย กรุงเทพมหานคร 10110,"258-1191, 258-1179",มี,13.7188346,100.4724626
224,พี.เอส.ฮาร์ดแวร์,491/8-9 ตรอกวัดจันทร์ใน แขวงบางโคล่ เขตบางคอแหลม กรุงเทพมหานคร 10120,084-659-9691,ไม่มี,13.694273,100.50995
225,บริษัท สงวนชัยเทรดดิ้ง จำกัด,1778-1780 ถ.พระราม 6 แขวงวังใหม่ เขตปทุมวัน กรุงเทพมหานคร 10330,02-214-1964,ไม่มี,13.7387222,100.522197
226,สยามวณิชฮาร์ดแวร์,385 ถ.พระราม 3  แขวงบางโคล่ เขตบางคอแหลม กรุงเทพมหานคร 10120,02-689-0225,มี,13.690673,100.4214363
227,บริษัท ส.สินพานิช 1993 จำกัด,"40,42 ซ.เจริญราษฏร์ 7 แยก 17 แขวงบางโคล่ เขตบางคอแหลม กรุงเทพมหานคร 10120",02-289-4359,ไม่มี,13.690937,100.4130663
228,บริษัท แสงเจริญพัฒนาเอ็นเตอร์ไพรส์ จำกัด,438/12-13 ถ.ลาดพร้าว แขวงจอมพล เขตจตุจักร กรุงเทพมหานคร 10900,"511-3366, 938-1938",ไม่มี,13.806779,100.572115
229,หจก. เค เอ็น บิวด์,250/12-13 ถ.มิตรพันธ์ แขวงป้อมปราบ เขตป้อมปราบศัตรูพ่าย กรุงเทพมหานคร 10100,"081-903-5696, 086-367-5548",ไม่มี,13.74243,100.5096413
230,ห้างหุ้นส่วนจำกัด เลิศสัมพันธ์,24/12 ถ.ป๊อปปูล่า ต.บ้านใหม่ อ.ปากเกร็ด จ.นนทบุรี 11120,02-215-2513,ไม่มี,13.7483796,101.0782275
231,หจก. สีสรรหทัยราษฏร์,49/13 หมู่ที่ 19 ถ.นิมิตใหม่ แขวงมีนบุรี เขตมีนบุรี กรุงเทพมหานคร 10510,091-539-8245,มี,13.832545,100.737138
232,บุญชัยฮาร์ดแวร์,"100,102 ถ.ลาดพร้าว 101  แขวงคลองจั่น เขตบางกะปิ กรุงเทพมหานคร 10240",02-731-2448-9,ไม่มี,13.78117,100.4283453
233,บริษัท สายทอง ฮาร์ดแวร์ จำกัด,13/16 หมู่ที่ 6 ถ.เชื่อมสัมพันธ์ แขวงโคกแฝด เขตหนองจอก กรุงเทพมหานคร 10530,02-988-0232-33,ไม่มี,13.820926,100.845314
234,บริษัท ยู.เอ. เพ้นท์ แอนด์ ทูล จำกัด,"109,111 ถ.รามอินทรา แขวงมีนบุรี เขตมีนบุรี กรุงเทพมหานคร 10510",02-907-4427-9,มี,13.8127994,100.5215322
235,บุญชัยคอนสตรั๊คชั่น,56/168 หมู่ที่ 4 ถ.พระยาสุเรนทร์ แขวงบางชัน เขตคลองสามวา กรุงเทพมหานคร 10510,02-9190678-9,ไม่มี,13.8216295,100.0580259
236,บริษัท ทีทีเอส คอนแมท จำกัด,154/41 ซ.ราษฎร์อุทิศ 16  ถ.ราษฎร์อุทิศ แขวงแสนแสบ เขตมีนบุรี กรุงเทพมหานคร 10510,02-919-5746,มี,13.824918,100.0611563
237,หจก. นวศรีเคหะภัณฑ์,26/8 ถ.รามคำแหง 203 แขวงมีนบุรี เขตมีนบุรี กรุงเทพมหานคร 10510,02-517-4860-3,ไม่มี,13.803878,100.2156233
238,หจก. ธัญญาค้าไม้,2 ซ.ราษฎร์อุทิศ 25/7  แขวงแสนแสบ เขตมีนบุรี กรุงเทพมหานคร 10510,02-917-3834,ไม่มี,13.835781,100.5193891
239,บริษัท ท.วัฒนกิจ ซัพพลาย จำกัด,52/7 ซ.รามคำแหง 164 ถ.รามคำแหง แขวงมีนบุรี เขตมีนบุรี กรุงเทพมหานคร 10510,02-9177331-2,มี,13.78999,100.4959343
240,บริษัท ฟ้าใสรุ่งเรือง จำกัด,67/1 ถ.ร่มเกล้า  แขวงแสนแสบ เขตมีนบุรี กรุงเทพมหานคร 10510,02-543-6670,ไม่มี,13.8077529,100.4928657
241,หจก. ตั้งเจริญ (2018),42/1 หมู่ที่ 5 ต.ลำโพ อ.บางบัวทอง จ.นนทบุรี 11110,02-158-4824,ไม่มี,13.969499,100.427796
242,บริษัท ซี.เค.เค. คอนกรีต จำกัด,96/7 หมู่ที่ 6 ถ.ตลิ่งชัน-สุพรรณบุรี ต.ราษฎร์นิยม อ.ไทรน้อย จ.นนทบุรี 11150,02-922-3885,มี,14.0713613,100.6872976
243,หจก. ถวัลย์ค้าวัสดุก่อสร้าง,9/5 ม.1 ถ.ตลิ่งชัน-สุพรรณบุรี ต.หน้าไม้ อ.ลาดหลุมแก้ว จ.ปทุมธานี 12140,02-979-3560-1,มี,14.016112,100.550959
244,หจก. บ้านรวมไม้,111/9 หมู่ที่ 7 ต.บางคูวัด อ.เมืองปทุมธานี จ.ปทุมธานี 12000,081-420-4079,ไม่มี,13.9591278,100.5104967
245,บริษัท ไชยฮวดซิเมนต์ โฮมมาร์ท จำกัด,178 หมู่ที่ 7 ต.บางคูวัด อ.เมืองปทุมธานี จ.ปทุมธานี 12000,02-976-5364,มี,13.957601,100.8591343
246,บริษัท เค.ดี.วู๊ด แอนด์ ฮาร์ดแวร์ จำกัด,44/1 หมู่ที่ 5 ต.บางพูน อ.เมืองปทุมธานี จ.ปทุมธานี 12000,081-931-6573,ไม่มี,13.954003,100.4734603
247,บริษัท ต.สีเอเซีย กรุ๊ป จำกัด,73/26-27 ถ.บรรทัดทอง แขวงถนนเพชรบุรี เขตราชเทวี กรุงเทพมหานคร 10400,"215-7674, 611-0872",มี,13.7526864,100.525292
248,โปรเพ้นท์ โฮม เซอร์วิส,31 ถ.นิมิตใหม่ แขวงมีนบุรี เขตมีนบุรี กรุงเทพมหานคร 10510,02-914-5979,ไม่มี,13.832466,100.737039
249,บริษัท กิตติชัยเพ้นท์ 2019 จำกัด,666/87-88 ถ.พระยาสุเรนทร์ แขวงบางชัน เขตคลองสามวา กรุงเทพมหานคร 10510,02-919-2212-3,ไม่มี,13.838324,100.6967853
250,บริษัท สีบ้านสวย จำกัด,72/10-13 ถนนรามอินทรา แขวงคันนายาว เขตคันนายาว กรุงเทพมหานคร 10230,02-5180518,มี,13.8127047,100.6906712
251,บริษัท สีบ้านสวย บางแค จำกัด,666/6 ถ.กาญจนาภิเษก แขวงบางไผ่ เขตบางแค กรุงเทพมหานคร 10160,084-453-3883,มี,13.7434953,100.4061098
252,คณะบุคคลโปรเพ้นท์,330/29 หมู่ 10 แขวงลำปลาทิว เขตลาดกระบัง กรุงเทพมหานคร 10520,02-738-6734,มี,13.751209,101.0748273
253,สุพล ฮาร์ดแวร์,806/5-6 ถ.สุขุมวิท แขวงพระโขนง เขตคลองเตย กรุงเทพมหานคร 10110,02-3920258,มี,13.7237486,100.5790106
254,บริษัท เซ็นเตอร์เพ้นท์ จำกัด,48 ถ.เสรีไทย แขวงมีนบุรี เขตมีนบุรี กรุงเทพมหานคร 10510,02-918-9400,มี,13.8116843,100.7175385
255,บริษัท ณ เพชรเอก 2018 จำกัด,11 ถ.หทัยราษฏร์ แขวงสามวาตะวันตก เขตคลองสามวา กรุงเทพมหานคร 10510,02-010-5858,ไม่มี,13.862159,100.720561
256,บริษัท เอ็มเคโฮม 2 จำกัด,435 ถ.คุ้มเกล้า แขวงแสนแสบ เขตมีนบุรี กรุงเทพมหานคร 10510,02-102-9348,ไม่มี,13.786012,100.779918
257,บริษัท เอ็มเคโฮม จำกัด,288 ถ.ประชาร่วมใจ แขวงทรายกองดินใต้ เขตคลองสามวา กรุงเทพมหานคร 10510,02-543-7939,ไม่มี,13.826769,100.4131511
258,บริษัท ณ เพชรเอก จำกัด,12 หมู่ที่ 3 แขวงคลองสิบสอง เขตหนองจอก กรุงเทพมหานคร 10530,093-525-2112,ไม่มี,13.8612621,100.5357937
259,โปรเพ้นท์ นิมิตใหม่,31 ถ.นิมิตใหม่ แขวงมีนบุรี เขตมีนบุรี กรุงเทพมหานคร 10510,,มี,13.751454,100.7859843
260,บริษัท สีให้โชค จำกัด,12 ซ.ราษฎร์พัฒนา 15 แขวงราษฎร์พัฒนา เขตสะพานสูง กรุงเทพมหานคร 10240,02-729-2808-9,มี,13.7667347,100.7049116
261,บริษัท ทวีโชควัสดุภัณฑ์ จำกัด,897/1 ถ.ลาดกระบัง แขวงลาดกระบัง เขตลาดกระบัง กรุงเทพมหานคร 10520,02-737-0214,มี,13.722155,100.7514743
262,แสงทวีฮาร์ดแวร์,358/3-4 ถ.เคหะร่มเกล้า แขวงคลองสองต้นนุ่น เขตลาดกระบัง กรุงเทพมหานคร 10520,02-557-0533,ไม่มี,13.7602416,100.6123012
263,มหานคร ฮาร์ดแวร์,18/15 หมู่ที่ 1 ถ.ลาดกระบัง แขวงลาดกระบัง เขตลาดกระบัง กรุงเทพมหานคร 10520,02-326-9360,มี,13.7221209,100.7875333
264,บริษัท เอกธนา พาณิชย์ จำกัด,443 ซ.พัฒนาการ 30 แขวงสวนหลวง เขตสวนหลวง กรุงเทพมหานคร 10250,,ไม่มี,13.728963,100.62071
265,บริษัท รักบ้าน 58 กรุ๊ป จำกัด,90/6 ตลาดพีรญา ถ.สุเหร่าคลองหนึ่ง ซ.4-6 แขวงบางชัน เขตคลองสามวา กรุงเทพมหานคร 10510,02-919-3037,มี,13.8410529,100.7000099
266,ห้างหุ้นส่วนจำกัด รุ่งเจริญโลหะ,1215 ถ.ลาดกระบัง แขวงลาดกระบัง เขตลาดกระบัง กรุงเทพมหานคร 10520,02-737-0361,มี,13.722146,100.7096763
267,หจก. สหวิชัย เฟอร์นิเจอร์,25/17 หมู่ที่ 13 ซ.กลิ่นหอมรื่น  ถ.สีหบุรานุกิจ แขวงมีนบุรี เขตมีนบุรี กรุงเทพมหานคร 10510,02-918-7037,ไม่มี,13.812604,100.718027
268,โชคชัย,129/36-37 หมู่ 4 ถ.ร่มเกล้า แขวงคลองสองต้นนุ่น เขตลาดกระบัง กรุงเทพมหานคร 10520,02-916-1640,มี,13.7678092,99.9774154
269,ร้าน แสงอรุณ,745 ถ.พระยาสุเรนทร์ แขวงบางชัน เขตคลองสามวา กรุงเทพมหานคร 10510,02-517-7884,ไม่มี,13.8336397,100.6628152
270,คุณสันติ  โกศลกิตติพงศ์,93/22 หมู่บ้านวาสนา  ซ.หทัยราษฎร์ 11  ถ.หทัยราษฎร์ แขวงมีนบุรี เขตมีนบุรี กรุงเทพมหานคร 10510,,ไม่มี,,
271,เก่งฮาร์ดแวร์,162/14 ถ.ขุมทอง-ลำต้อยติ่ง แขวงขุมทอง เขตลาดกระบัง กรุงเทพมหานคร 10520,02-363-5696,มี,13.720398,100.6806543
272,หจก. เอกจรัล ค้าไม้,371 ถ.หทัยราษฎร์ แขวงสามวาตะวันตก เขตคลองสามวา กรุงเทพมหานคร 10510,,ไม่มี,,
273,พีเค ฮาร์ดแวร์,163 ถ.หทัยราษฏร์ แขวงบางชัน เขตคลองสามวา กรุงเทพมหานคร 10510,02-915-8881,มี,13.8405206,100.6586739
274,หจก. ประชาร่วมใจค้าวัสดุก่อสร้าง,819 หมู่ 1 ถ.ประชาร่วมใจ แขวงทรายกองดินใต้ เขตคลองสามวา กรุงเทพมหานคร 10510,02-916-8844,มี,13.848501,99.8512923
275,บริษัท ดี.เค. ค้าไม้ แอนด์ ฮาร์ดแวร์ จำกัด,596 ถ.หทัยราษฏร์ แขวงบางชัน เขตคลองสามวา กรุงเทพมหานคร 10510,02-115-5824,ไม่มี,13.8527436,100.7218637
276,บริษัท เซ็นเตอร์ฮาร์ดแวร์ สุวินทวงศ์ จำกัด,"19/4/26,27,28,29,30 หมู่ที่ 7 ต.คลองหลวงแพ่ง อ.เมืองฉะเชิงเทรา จ.ฉะเชิงเทรา 24000",,ไม่มี,13.79543,100.7071473
277,บริษัท กู๊ด คัลเลอร์ เซ็นเตอร์ จำกัด,98/8 หมู่ 6 ถ.พุทธมณฑลสาย 4 ต.กระทุ่มล้ม อ.สามพราน จ.นครปฐม 73220,081-991-8825,มี,13.7356599,100.3294984
278,บริษัท บ้านสีบ้านสวย จำกัด,9/59 หมู่ 9 ถ.กาญจนาภิเษก ต.บางม่วง อ.บางใหญ่ จ.นนทบุรี 11140,02-403-3340,มี,13.8432249,100.4126085
279,นำชัยศรีปทุม,46/29-32 หมู่ 1  ต.ท้ายเกาะ อ.สามโคก จ.ปทุมธานี 12160,093-342-6455,มี,14.109329,100.5060603
280,บริษัท เซ็นเตอร์เพ้นท์แอนด์ไพพ์ จำกัด,1/22 หมู่ที่ 3 ถ.ปทุม-สามโคก ต.บางโพธิ์เหนือ อ.สามโคก จ.ปทุมธานี 12160,02-581-1217,ไม่มี,14.032399,100.525227
281,บริษัท ถิรพิมาน วัสดุก่อสร้าง จำกัด,45/11 หมู่ 11  ต.คูบางหลวง อ.ลาดหลุมแก้ว จ.ปทุมธานี 12140,02-598-1213,มี,14.0516183,100.4556897
282,หจก. โชคนำผลวัฒนา,190/5 ม.9 ต.บางเตย อ.สามโคก จ.ปทุมธานี 12160,02-977-2210-1,มี,14.0714445,100.5217152
283,บริษัท สามโคกโฮมเซ็นเตอร์ (2004) จำกัด,29/11-12 ถ.ปทุมธานี-สามโคก ต.สามโคก อ.สามโคก จ.ปทุมธานี 12160,02-9790257,มี,14.039283,100.7889323
284,บริษัท ปั้นดิน ดีไซน์ จำกัด,21/6 หมู่ที่ 7 ต.คูบางหลวง อ.ลาดหลุมแก้ว จ.ปทุมธานี 12140,02-979-4082,ไม่มี,14.034562,100.467875
285,แสงอุดม,501 ถ.อุดมสุข แขวงบางนา เขตบางนา กรุงเทพมหานคร 10260,085-119-8373,ไม่มี,13.67827,100.62033
286,บริษัท ตั้งย่งเฮง วัสดุก่อสร้าง (2018) จำกัด,61/2 ถ.สุขาภิบาล 2 แขวงดอกไม้ เขตประเวศ กรุงเทพมหานคร 10250,092-661-9638,ไม่มี,13.694981,100.703548
287,บริษัท โลหะชัย ฮาร์ดแวร์ จำกัด,493 ถ.หลวงแพ่ง แขวงทับยาว เขตลาดกระบัง กรุงเทพมหานคร 10520,02-738-0824,ไม่มี,13.720998,100.79389
288,เอ พี เค เพ้นท์,"371,373 ซ.จรัญสนิทวงศ์ 62 ถ.จรัญสนิทวงศ์ แขวงบางยี่ขัน เขตบางพลัด กรุงเทพมหานคร 10700",02-435-1223,มี,13.7810659,100.4949627
289,บริษัท เอกชัยเจริญกิจ จำกัด,882 ถ.หลวงแพ่ง แขวงทับยาว เขตลาดกระบัง กรุงเทพมหานคร 10520,02-364-8391,ไม่มี,13.709025,100.818164
290,หจก. ศิรินครินทร์,4/5  หมู่ที่ 14 ถ.เฉลิมพระเกียรติ ร.9 แขวงประเวศ เขตประเวศ กรุงเทพมหานคร 10250,02-726-8141,มี,13.714028,100.1574863
291,บริษัท ธาวัน เดคคอน 2001 จำกัด,381 ถ.อ่อนนุช แขวงประเวศ เขตประเวศ กรุงเทพมหานคร 10250,02-721-7847,ไม่มี,13.719013,100.5600693
292,บริษัท เด่นชัยเพ้นท์ จำกัด,609 ถ.ราษฎร์อุทิศ แขวงแสนแสบ เขตมีนบุรี กรุงเทพมหานคร 10510,,ไม่มี,13.8422386,100.4480967
293,บริษัท กิจศิริซีเมนต์ จำกัด,172 ถ.เฉลิมพระเกียรติ ร.9 แขวงหนองบอน เขตประเวศ กรุงเทพมหานคร 10250,02-7471405-7,มี,13.6765694,100.6615621
294,เฮียเฮ้าส์,359 ถ.เฉลิมพระเกียรติ ร.9 แขวงหนองบอน เขตประเวศ กรุงเทพมหานคร 10250,02-726-3083,ไม่มี,13.6960538,100.5325731
295,บริษัท เซ็นเตอร์ เพ้นท์ สุวินทวงศ์ จำกัด,19/4/24 หมู่ที่ 7 ถ.สุวินทวงศ์ ต.คลองหลวงแพ่ง อ.เมืองฉะเชิงเทรา จ.ฉะเชิงเทรา 24000,038-131-622,มี,13.7955836,100.9420706
296,หจก. เดชธนา ซัพพลาย,96 หมู่ที่ 4 ต.ศาลากลาง อ.บางกรวย จ.นนทบุรี 11130,02-435-1223,ไม่มี,13.818162,100.346934
297,บริษัท ซี.ซี. ฮาร์ดแวร์ แอนด์ ทูลส์ จำกัด,7/25-26 หมู่ที่ 7 ถ.คลองหลวง-บางขันธ์ ต.คลองสอง อ.คลองหลวง จ.ปทุมธานี 12120,02-524-2008,ไม่มี,14.065809,100.644085
298,บริษัท แสงอุดมวัสดุ จำกัด,138 หมู่ที่ 3 ถ.หนามแดง ต.บางแก้ว อ.บางพลี จ.สมุทรปราการ 10540,095-914-2642,ไม่มี,13.620547,100.653713
299,บุญสิริโฮมเซ็นเตอร์,456/3 หมู่ที่ 1 ถ.รัตนราช ต.บางบ่อ อ.บางบ่อ จ.สมุทรปราการ 10560,02-7085844,มี,13.5814763,100.8363156
300,บริษัท สหไชโย อิเล็คทริคเฮ้าส์ จำกัด,33/24 หมู่ที่ 7 ถ.บางพลี-กิ่งแก้ว ต.บางพลีใหญ่ อ.บางพลี จ.สมุทรปราการ 10540,02-751-0337,มี,13.609662,100.4340223
301,บริษัท ดีเด่นดัง ค้าวัสดุ จำกัด,29/9 หมู่ที่ 6 ต.ศรีษะจรเข้ใหญ่ อ.บางเสาธง จ.สมุทรปราการ 10570,,ไม่มี,13.657703,100.787999
302,บริษัท ซ้อภาค้าเหล็ก จำกัด,33/2-3 หมู่ที่ 5 ถ.บางนาตราด ต.ศรีษะจรเข้ใหญ่ อ.บางเสาธง จ.สมุทรปราการ 10570,02-118-3538,มี,13.64768,100.782617
303,บริษัท โฮมพลัส เอ็กซ์เพรส (ลาดพร้าววังหิน 32) จำกัด,422 ถ.ลาดพร้าววังหิน  แขวงลาดพร้าว เขตลาดพร้าว กรุงเทพมหานคร 10230,02-931-6286,มี,13.8112958,100.5913543
304,บริษัท โรจนาฮาร์ดแวร์ จำกัด,810 ซ.รามคำแหง 60/1 แขวงหัวหมาก เขตบางกะปิ กรุงเทพมหานคร 10240,086-608-6253,ไม่มี,13.7630127,100.64930127
305,บริษัท บุญชัยค้าวัตถุก่อสร้าง จำกัด,44/2-5  ถ.นวมินทร์ แขวงนวลจันทร์ เขตบึงกุ่ม กรุงเทพมหานคร 10230,02-947-9494-6,มี,13.8278008,100.6578934
306,บ้านสี 40,454 ถ.โชคชัย 4 แขวงลาดพร้าว เขตลาดพร้าว กรุงเทพมหานคร 10230,081-958-9346,มี,13.815302,100.5963105
307,บริษัท สีสวย ศรีวรา จำกัด,"1149,1151 ซ.ลาดพร้าว 94 (ปัญจมิตร) แขวงพลับพลา เขตวังทองหลาง กรุงเทพมหานคร 10310",02-530-3825,มี,13.7729972,100.6125504
308,บริษัท เคแอ็ซไซน์ จำกัด,9/136 ซ.นวมินทร์ 95  แขวงนวมินทร์ เขตบึงกุ่ม กรุงเทพมหานคร 10240,02-733-4560,ไม่มี,13.849496,100.5106153
309,บริษัท มารวยเคหะภัณฑ์ จำกัด,6/89 ถ.จตุโชติ แขวงออเงิน เขตสายไหม กรุงเทพมหานคร 10220,081-860-3034,มี,13.898413,100.67233
310,บริษัท เคแอสไซน์ (ประเทศไทย) จำกัด,282/1 ถ.อ่อนนุช แขวงประเวศ เขตประเวศ กรุงเทพมหานคร 10250,089-799-6654,ไม่มี,13.71937,100.5589283
311,ภินันท์พาณิชย์,808 ซ.60/1 ถ.รามคำแหง แขวงหัวหมาก เขตบางกะปิ กรุงเทพมหานคร 10240,02-374-8575,ไม่มี,13.7545222,100.7464278
312,ร้าน โรจนาพาณิชย์,810 ซ.60/1 ถ.รามคำแหง แขวงหัวหมาก เขตบางกะปิ กรุงเทพมหานคร 10240,,มี,13.7631075,100.6492759
313,บริษัท สีสวย โฮมช็อป จำกัด,189/1 ถ.กรุงเทพกรีฑา แขวงสะพานสูง เขตสะพานสูง กรุงเทพมหานคร 10240,087-507-6100,ไม่มี,13.741016,100.683832
314,จิรพาณิชย์,8 ซ.รามคำแหง 60/1 ถ.รามคำแหง แขวงหัวหมาก เขตบางกะปิ กรุงเทพมหานคร 10240,02-374-8575,ไม่มี,13.762199,100.5464503
315,ณัฐพลเคหะภัณฑ์,49/674 ถ.เสรีไทย แขวงคลองกุ่ม เขตบึงกุ่ม กรุงเทพมหานคร 10230,089-925-5834,ไม่มี,13.780154,100.4434833
316,บริษัท อัศวศุภชัย จำกัด,705 ถนนลาดพร้าว แขวงจอมพล เขตจตุจักร กรุงเทพมหานคร 10900,02-938-4317-8,มี,13.8087604,100.5689763
317,บริษัท ชัยรุ่งเรือง โฮมเพ้นท์ จำกัด,18/89 หมู่ที่ 8 แขวงลาดพร้าว เขตลาดพร้าว กรุงเทพมหานคร 10230,02-539-2881-2,มี,13.8053826,100.6078006
318,บริษัท โชคประเสริฐ ซัพพลาย จำกัด,691 ถ.ลาดพร้าววังหิน แขวงลาดพร้าว เขตลาดพร้าว กรุงเทพมหานคร 10230,02-570-4144,มี,13.8286261,100.5917758
319,บริษัท ชัยจักรเพชร 2010 จำกัด,100/69 หมู่ที่ 6 แขวงลำปลาทิว เขตลาดกระบัง กรุงเทพมหานคร 10520,02-540-0472,มี,13.795433,100.709334
320,พยุงทองพาณิชย์,58 ถ.กรุงเทพกรีฑา แขวงทับช้าง เขตสะพานสูง กรุงเทพมหานคร 10250,02-368-3101,มี,13.7410965,100.6836276
321,บริษัท ซุนโหงว เพ็นท์ จำกัด,1341 ถ.สุทธิสารวินิจฉัย แขวงรัชดาภิเษก เขตดินแดง กรุงเทพมหานคร 10400,02-6938994-5,มี,13.7897592,100.5686001
322,บริษัท รุ่งเรืองมาร์ท จำกัด,"179,181,183 ซ.ประเสริฐมนูกิจ 29 ถ.ประเสริฐมนูกิจ แขวงจรเข้บัว เขตลาดพร้าว กรุงเทพมหานคร 10230",02-943-6274-5,มี,13.842219,100.61805
323,บริษัท คัลเลอร์ แลนด์ เพนท์ จำกัด,110 ถ.เสนานิคม 1 แขวงลาดพร้าว เขตลาดพร้าว กรุงเทพมหานคร 10230,02-570-7809,มี,13.830795,100.2256853
324,ร้าน สหโชคไพบูลย์รวมวัสดุ,10/1240-1241 ถ.นวมินทร์ แขวงนวมินทร์ เขตบึงกุ่ม กรุงเทพมหานคร 10240,02-379-1821,มี,13.801057,100.6484093
325,บริษัท เฉลียวการช่าง และค้าวัสดุก่อสร้าง จำกัด,88 ซ.สายไหม 56 ถ.สายไหม แขวงออเงิน เขตสายไหม กรุงเทพมหานคร 10220,02-536-0517-9,ไม่มี,13.9159421,100.3998076
326,บริษัท รุ่งโรจน์ อินเตอร์ เพ้นท์ จำกัด,356 ถ.ประดิษฐ์มนูธรรม แขวงพลับพลา เขตวังทองหลาง กรุงเทพมหานคร 10310,02-933-7602-3,ไม่มี,13.776549,100.6698873
327,ร้าน เครื่องก่อสร้างฮาร์ดแวร์,24/145 หมู่ 6 ซ.พหลโยธิน 56 ถ.พหลโยธิน แขวงสายไหม เขตสายไหม กรุงเทพมหานคร 10220,02-993-5691,ไม่มี,13.8598712,100.510807
328,ทรัพย์อุดม,"719/8,721 ซ.ลาดพร้าว 101 ถ.ลาดพร้าว แขวงคลองเจ้าคุณสิงห์ เขตวังทองหลาง กรุงเทพมหานคร 10310",02-731-5162,มี,13.78567,100.301355
329,หจก. ศุภชัยฮาร์ดแวร์,1958 ถ.ลาดพร้าว แขวงวังทองหลาง เขตวังทองหลาง กรุงเทพมหานคร 10310,02-538-1193,ไม่มี,13.7888131,100.6045876
330,หจก. ธนวุฒิสุขภัณฑ์,60/32 หมู่ที่ 1 ถ.สุขาภิบาล 5 แขวงออเงิน เขตสายไหม กรุงเทพมหานคร 10220,02-563-4217,มี,13.9128244,100.5692048
331,หจก. พระรามเก้า วัสดุภัณฑ์,845/2 ถ.พระราม 9 แขวงสวนหลวง เขตสวนหลวง กรุงเทพมหานคร 10250,02-319-3772,มี,13.742674,100.5115783
332,ควิก คัลเลอร์,9/15-9/16 หมู่ที่ 3 แขวงออเงิน เขตสายไหม กรุงเทพมหานคร 10220,081-142-1421,ไม่มี,13.89676,101.5986073
333,บริษัท ฉัตรสยามสีและวัสดุภัณฑ์ จำกัด,2486 ถ.ลาดพร้าว แขวงพลับพลา เขตวังทองหลาง กรุงเทพมหานคร 10310,02-539-8944,มี,13.7743487,100.3947534
334,บริษัท สถาพรพงศ์ จำกัด,26/397-399 หมู่ 6 ถ.พหลโยธิน แขวงสายไหม เขตสายไหม กรุงเทพมหานคร 10220,"531-1723, 531-8530",ไม่มี,13.9450009,100.5375648
335,บริษัท โรจนาพาณิชย์ จำกัด,440/1 ถ.ศุขประยูร ต.หน้าเมือง อ.เมืองฉะเชิงเทรา จ.ฉะเชิงเทรา 24000,086-608-6253,ไม่มี,13.666268,101.090974
336,บริษัท สีศิริภัณฑ์ จำกัด,213/14 ซ.นาคบำรุง แขวงคลองมหานาค เขตป้อมปราบศัตรูพ่าย กรุงเทพมหานคร 10100,,ไม่มี,,
337,บริษัท ศิริภัณฑ์เทรดดิ้ง จำกัด,199-201 ถ.นครสวรรค์ แขวงวัดโสมนัส เขตป้อมปราบศัตรูพ่าย กรุงเทพมหานคร 10100,"2827770-4, 2820005-6",ไม่มี,13.7586261,100.5101362
338,บริษัท ใช้ง้วงล้ง จำกัด,143/1 หมู่ที่ 4 ต.บางกร่าง อ.เมืองนนทบุรี จ.นนทบุรี 11000,089-202-9334,ไม่มี,13.8361445,100.4468491
339,บริษัท สหสินไทยค้าวัตถุก่อสร้าง จำกัด,"569,39,39/1-7 ถ.ติวานนท์ ต.ท่าทราย อ.เมืองนนทบุรี จ.นนทบุรี 11000",02-9513766,มี,13.8786648,100.5144809
340,บริษัท เอส.พี.เอ็น.คัลเลอร์วู๊ด จำกัด,99/18 หมู่ที่ 4 ต.บางกร่าง อ.เมืองนนทบุรี จ.นนทบุรี 11000,086-660-2694,ไม่มี,13.84032,100.450406
341,บริษัท เจริญทรัพย์ เคหะภัณฑ์ ประชานิเวศน์ จำกัด,"44,46 ถ.ประชานิเวศน์ 3 ต.ท่าทราย อ.เมืองนนทบุรี จ.นนทบุรี 11000",081-375-1250,มี,13.880548,100.530591
342,หจก. พี.แอล.เอส มาร์เก็ตติ้ง,90/124-125 หมู่ที่ 5 ถ.รัตนาธิเบศร์ ต.บางรักน้อย อ.เมืองนนทบุรี จ.นนทบุรี 11000,02-9245385,มี,13.8851784,100.4592722
343,บริษัท พี.เค.ท่าอิฐ อินเตอร์เทรด จำกัด,30/2 หมู่ที่ 1 ถ.ราชพฤกษ์ ต.ท่าอิฐ อ.ปากเกร็ด จ.นนทบุรี 11120,,ไม่มี,13.891867,100.6175593
344,บริษัท บีลีฟ ซอร์สซิ่ง จำกัด,39/5 ถ.ติวานนท์ ต.ท่าทราย อ.เมืองนนทบุรี จ.นนทบุรี 11000,,ไม่มี,13.878365,100.514473
345,บริษัท ซีเอสเค โฮมเซ็นเตอร์ จำกัด,426 ถ.ประชาราษฏร์  ต.ตลาดขวัญ อ.เมืองนนทบุรี จ.นนทบุรี 11000,089-770-0120,ไม่มี,13.844329,100.502058
346,บริษัท สีรุ้งซัพพลาย จำกัด,"48/1,/2,/3 หมู่ 4 ถ.บางกรวย-ไทรน้อย ต.บางกร่าง อ.เมืองนนทบุรี จ.นนทบุรี 11000",02-9034448,มี,13.8394289,100.6606231
347,บริษัท ชัยรุ่งเรือง เวิร์ลเพ็นท์ จำกัด,37/4-5 หมู่ 2 ถ.ตลิ่งชัน-สุพรรณบุรี ต.บางบัวทอง อ.บางบัวทอง จ.นนทบุรี 11110,02-923-0240-1,มี,13.9273536,100.4141829
348,บริษัท กิจโกศล จำกัด,175 ถ.รัตนาธิเบศร์ ต.บางกระสอ อ.เมืองนนทบุรี จ.นนทบุรี 11000,02-588-2745,ไม่มี,13.8400989,100.4530852
349,หจก. ชำนาญโลหะภัณฑ์ (1992),64/86-87-88-90-91 หมู่ที่ 1 ถ.บางกรวย-ไทรน้อย ต.บางกร่าง อ.เมืองนนทบุรี จ.นนทบุรี 11000,02-882-8304-5,มี,13.8358332,100.4662006
350,บริษัท ที.พี.อินเตอร์เทค จำกัด,55/433-436 หมู่ที่ 9 ถ.แจ้งวัฒนะ ต.บางพูด อ.ปากเกร็ด จ.นนทบุรี 11120,"502-4342, 503-3255",มี,13.9131438,100.6780985
351,หจก. ช.ถาวร ซัพพลาย,"128,130,132 ม.6 ถ.ติวานนท์ ต.ท่าทราย อ.เมืองนนทบุรี จ.นนทบุรี 11000",02-589-6190,ไม่มี,13.8720078,100.3392496
352,บริษัท เกตุเจริญร่วมพัฒนา จำกัด,629 ถ.สามัคคี ต.ท่าทราย อ.เมืองนนทบุรี จ.นนทบุรี 11000,02-573-1705,มี,13.881238,100.6497483
353,หจก. รุ่งดำรงค์,34/4-5 ซ.วัดบัวขวัญ ถ.งามวงศ์วาน ต.บางเขน อ.เมืองนนทบุรี จ.นนทบุรี 11000,02-580-1164,มี,13.860563,100.5087687
354,ร้าน รุ่งอนันต์ ฮาร์ดแวร์,122/16 หมู่ที่ 1 ถ.รัตนาธิเบศร์ ต.บางรักใหญ่ อ.บางบัวทอง จ.นนทบุรี 11110,02-9267322-3,มี,13.8753581,100.5158856
355,จิตติภณ ค้าวัสดุ,189/6-9 หมู่ที่ 5 ต.บางกะดี อ.เมืองปทุมธานี จ.ปทุมธานี 12000,089-660-5299,มี,13.986012,100.551235
356,พรเจริญ,13/26 หมู่ที่ 7 ถ.เลียบคลองสี่ ต.คลองสี่ อ.คลองหลวง จ.ปทุมธานี 12120,081-903-5868,มี,14.071139,100.687354
357,หจก. ทวีศักดิ์ วัสดุก่อสร้าง 2015,1/8 หมู่ที่ 5 ต.คลองสอง อ.คลองหลวง จ.ปทุมธานี 12120,081-255-4460,ไม่มี,14.049167,100.642309
358,บริษัท นวการค้าวัสดุก่อสร้าง จำกัด,52/2 ถ.ปทุมรังสิต ต.บางปรอก อ.เมืองปทุมธานี จ.ปทุมธานี 12000,02-581-4471-5,มี,14.0294516,99.5548872
359,บริษัท ดีมาเพ้นท์ซัพพลาย จำกัด,41/6 หมู่ที่ 8  ต.บางคูวัด อ.เมืองปทุมธานี จ.ปทุมธานี 12000,"02-976-0213, 02-976-0985",มี,13.9591416,100.5104351
360,บริษัท สีสันปทุม จำกัด,99/13 ถ.ปทุม-สามโคก ต.บางปรอก อ.เมืองปทุมธานี จ.ปทุมธานี 12000,086-3328840,มี,14.024524,100.6876492
361,บริษัท พรศิวะ วัสดุก่อสร้าง จำกัด,70/5 หมู่ 1 ถ.บางคูวัด-บางบัวทอง ต.บางคูวัด อ.เมืองปทุมธานี จ.ปทุมธานี 12000,02-976-0943,ไม่มี,13.956882,100.3612073
362,บริษัท ปทุมรัฐ วัสดุก่อสร้าง จำกัด,48/6 หมู่ที่ 2 ถ.รังสิต-ลาดหลุมแก้ว ต.บ้านฉาง อ.เมืองปทุมธานี จ.ปทุมธานี 12000,02-581-6347,ไม่มี,14.025455,100.508812
363,บริษัท วานิชโฮมมาร์ท จำกัด,32/14-15 ม.6 ถ.บางขันธ์-คลองห้า ต.คลองสาม อ.คลองหลวง จ.ปทุมธานี 12120,02-901-1991-2,มี,14.0655337,100.6440705
364,บริษัท บี.เอ.เอ็น.วัสดุภัณฑ์ จำกัด,161/23-25 หมู่ที่ 3 ถ.กำนันแม้น แขวงบางขุนเทียน เขตจอมทอง กรุงเทพมหานคร 10150,02-897-5542,มี,13.690567,100.441083
365,ห้างหุ้นส่วนจำกัด ศิริเกษม (6341),17 ถ.ศิริเกษม แขวงบางไผ่ เขตบางแค กรุงเทพมหานคร 10160,02-421-1071,ไม่มี,13.738111,100.37122
366,ห้างหุ้นส่วนจำกัด ล้านสีวัสดุ 3,23 ถ.ช่างอากาศอุทิศ แขวงดอนเมือง เขตดอนเมือง กรุงเทพมหานคร 10210,02-565-3721,มี,13.911688,100.593187
367,บุญผ่อง ฮาร์ดแวร์,230 ซ.พระยามนธาตุฯ แยก 35-3 แขวงคลองบางบอน เขตบางบอน กรุงเทพมหานคร 10150,02-771-7047,ไม่มี,13.658177,100.416573
368,บริษัท ตั้งธนไพศาล จำกัด,"9,11 ซ.เพชรเกษม 57  แขวงหลักสอง เขตบางแค กรุงเทพมหานคร 10160",02-801-5130-2,ไม่มี,13.7089537,100.3922641
369,บริษัท เบญจราม จำกัด,154 ซ.กำนันแม้น 13 แขวงบางบอน เขตบางบอน กรุงเทพมหานคร 10150,086-319-4946,ไม่มี,13.6884355,100.4337546
370,พิรยา คัลเลอร์,35/50 หมู่ 2 ถ.รามอินทรา แขวงท่าแร้ง เขตบางเขน กรุงเทพมหานคร 10220,081-493-8015,มี,13.881167,100.6517272
371,โยธินการไฟฟ้า,72/65 หมู่ที่ 4 แขวงสีกัน เขตดอนเมือง กรุงเทพมหานคร 10210,02-503-9054,มี,13.9127867,100.5823156
372,เจริญมงคล,6/261 หมู่ที่ 5 ถ.พหลโยธิน 52 แขวงคลองถนน เขตบางเขน กรุงเทพมหานคร 10220,02-972-7885,มี,13.8918982,101.6175375
373,หจก. รุ่งภัณฑ์ (1994),84/109 หมู่ที่ 7 แขวงอนุสาวรีย์ เขตบางเขน กรุงเทพมหานคร 10220,02-589-1549,มี,13.8790077,100.4338916
374,บริษัท เอ็ม แอนด์ อี วัสดุก่อสร้าง จำกัด,505/1-2 ซ.พหลโยธิน 48  แขวงอนุสาวรีย์ เขตบางเขน กรุงเทพมหานคร 10220,02-900-4022,มี,13.8754657,100.4322803
375,บริษัท เจ.เค. ซัพพลาย แอนด์ แมชชีนเนอรี่ จำกัด,18 ซ.บางกระดี่ 35/1 แขวงแสมดำ เขตบางขุนเทียน กรุงเทพมหานคร 10150,02-4525844-7,ไม่มี,13.6095859,100.4066087
376,หจก. สงวนโลหะกิจ,209 ถ.บางพรม แขวงบางพรม เขตตลิ่งชัน กรุงเทพมหานคร 10170,"02-221-5667, 02-412-8446",ไม่มี,13.7526638,100.5253961
377,หจก. ธนทรัพย์โฮมเพ้นท์เซ็นเตอร์,"14,16 ถ.วัชรพล  แขวงท่าแร้ง เขตบางเขน กรุงเทพมหานคร 10230","945-4961, 01-610-6960",มี,13.854183,100.4260753
378,พรศิริทรัพย์,314/27 ถ.สรงประภา แขวงสีกัน เขตดอนเมือง กรุงเทพมหานคร 10210,081-645-9491,มี,13.92687,100.586924
379,รัตนฮาร์ดแวร์,"370,372 ถ.ท่าข้าม แขวงแสมดำ เขตบางขุนเทียน กรุงเทพมหานคร 10150",02-417-9471,ไม่มี,,
380,บริษัท รวยเจริญ เพ้นท์ จำกัด,166/35 หมู่ที่ 5 ต.ศาลายา อ.พุทธมณฑล จ.นครปฐม 73170,,ไม่มี,13.814741,100.321577
381,บริษัท ทวีโชค คัลเลอร์ จำกัด,166/36 หมู่ที่ 5 ต.ศาลายา อ.พุทธมณฑล จ.นครปฐม 73170,089-128-9354,มี,13.8144942,100.3218438
382,บริษัท เอ็ม อาร์ ซี 2010 คอนสตรัคชั่น จำกัด,41/8 หมู่ที่ 7 ต.ท่าอิฐ อ.ปากเกร็ด จ.นนทบุรี 11120,02-525-8099,มี,13.896131,100.479188
383,บริษัท จัมโบ้เอ อินดัสทรี จำกัด,23 หมู่ที่ 4 ต.บ้านใหม่ อ.ปากเกร็ด จ.นนทบุรี 11120,02-9614455,มี,13.9450527,100.5374847
384,บริษัท นำชัยวัสดุ จำกัด,99/1 หมู่ที่ 6 ถ.ชัยพฤกษ์ ต.คลองพระอุดม อ.ปากเกร็ด จ.นนทบุรี 11120,02-501-7951,ไม่มี,13.9242462,100.4714352
385,สยามฮาร์ดแวร์,44/103-104 หมู่ที่ 2 ซ.สุขาประชาสวรรค์ ถ.ติวานนท์ ต.บางพูด อ.ปากเกร็ด จ.นนทบุรี 11120,02-963-1036,มี,13.893523,100.463497
386,บริษัท เมืองทอง โฮม พลัส จำกัด,15/35 หมู่ที่ 2 ถ.แจ้งวัฒนะ ต.คลองเกลือ อ.ปากเกร็ด จ.นนทบุรี 11120,02-503-2002,มี,13.9010023,100.4291533
387,หจก. โอฬารเรืองกิจ,46/67 หมู่ที่ 3 ถ.ศรีสมาน ต.บ้านใหม่ อ.ปากเกร็ด จ.นนทบุรี 11120,083-075-5628,ไม่มี,13.9380155,100.5509068
388,ร้านมั่นคง,183/84 ถ.เลี่ยงเมืองสามัคคี ต.บางตลาด อ.ปากเกร็ด จ.นนทบุรี 11120,02-584-3527,ไม่มี,13.8879,100.510936
389,คุณมนูศักดิ์ กาญจนกิจภูษา,43/1 หมู่ที่ 10 ต.หนองไขว่ อ.หล่มสัก จ.เพชรบูรณ์ 67110,02-806-9815,ไม่มี,13.7376769,100.3639493
390,บริษัท เดอะ อีสเทิร์นยูเนี่ยน(ไทยแลนด์) จำกัด,190/86 หมู่ที่ 8 ต.ปากคลองบางปลากด อ.พระสมุทรเจดีย์ จ.สมุทรปราการ 10290,083-079-8707,ไม่มี,13.592664,100.534624
391,บริษัท ซีเอส โปรมาร์ท จำกัด,9/91 หมู่ที่ 5 ต.บางน้ำจืด อ.เมืองสมุทรสาคร จ.สมุทรสาคร 74000,034-181-145,ไม่มี,13.6850006,100.4425737
392,บริษัท ธีระพัฒน์ อินเตอร์กรุ๊ป(ไทยแลนด์) จำกัด,99/9 หมู่ที่ 1 ซ.วิรุณราษฏร์ ต.อ้อมน้อย อ.กระทุ่มแบน จ.สมุทรสาคร 74130,02-431-6001,ไม่มี,13.6823758,100.278371
393,บริษัท พี พี เซรามิค (รามอินทรา) จำกัด,106 ถ.รามอินทรา แขวงมีนบุรี เขตมีนบุรี กรุงเทพมหานคร 10510,02-540-4803-9,มี,13.812556,100.7166311
394,บริษัท ชุมพลโลหะกิจ (8888) จำกัด,367 ถ.รามอินทรา  แขวงอนุสาวรีย์ เขตบางเขน กรุงเทพมหานคร 10220,02-973-1688,มี,13.857658,101.0451613
395,บริษัท ชูชัยเพนท์ จำกัด,"370,372 ซ.เทียนทะเล 26 แยก 6-1 ถ.บางขุนเทียน-ชายทะเล แขวงท่าข้าม เขตบางขุนเทียน กรุงเทพมหานคร 10150",02-897-4104-6,ไม่มี,13.607487,100.429486
396,หจก. ส.เชื่อมสัมพันธ์,"101,103 ถ.เชื่อมสัมพันธ์ แขวงกระทุ่มราย เขตหนองจอก กรุงเทพมหานคร 10530",02-988-9635,มี,13.8514595,100.8608506
397,หจก. เอนกทรัพย์ฮาร์ดแวร์ (1992),101 ถ.ท่าข้าม แขวงแสมดำ เขตบางขุนเทียน กรุงเทพมหานคร 10150,02-895-7337,ไม่มี,13.699097,100.51002
398,หจก. กิจเจริญรุ่งเรือง การค้า,438/22-24 ถ.บางขุนเทียน-ชายทะเล แขวงแสมดำ เขตบางขุนเทียน กรุงเทพมหานคร 10150,02-496-7806,ไม่มี,13.632078,100.432535
399,บริษัท วิโรจน์ฮาร์ดแวร์ (1997) จำกัด,717/1 ถ.อนามัยงามเจริญ แขวงท่าข้าม เขตบางขุนเทียน กรุงเทพมหานคร 10150,02-405-7263-65,มี,13.632059,100.44975
400,ไพศาลภัณฑ์,10  ถ.เลียบวารี แขวงกระทุ่มราย เขตหนองจอก กรุงเทพมหานคร 10530,02-543-1701,ไม่มี,13.766472,100.3615683
401,บริษัท อินทวีทรัพย์ จำกัด,108/15 หมู่ที่ 8 แขวงหนองจอก เขตหนองจอก กรุงเทพมหานคร 10530,02-989-2184,มี,13.8600656,100.8641863
402,บริษัท สิทธิพันธุ์ มิกซ์โฮม จำกัด,157 หมู่ที่ 8 ถ.สกุลดี แขวงหนองจอก เขตหนองจอก กรุงเทพมหานคร 10530,02-543-1200-1,มี,13.8571892,100.8676036
403,ดำรงค์ค้าไม้,499 ถ.ราษฎร์อุทิศ แขวงแสนแสบ เขตมีนบุรี กรุงเทพมหานคร 10510,02-989-1239,ไม่มี,13.8400355,100.5484874
404,บริษัท พี พี เซรามิค (บางบัวทอง) จำกัด,112 หมู่ที่ 7 ต.ละหาร อ.บางบัวทอง จ.นนทบุรี 11110,02-540-4803-9,มี,13.975626,100.6529483
405,บริษัท ยงเจริญเคหะภัณฑ์ จำกัด,2/539-540 หมู่ที่ 18 ถ.ลำลูกกา ต.คูคต อ.ลำลูกกา จ.ปทุมธานี 12130,02-531-8769,มี,13.9388532,100.6421336
406,พงศธร วัสดุก่อสร้าง,14/20 ม.4 ถ.รังสิต-นครนายก ต.ลำผักกูด อ.ธัญบุรี จ.ปทุมธานี 12110,02-905-6948-9,มี,14.0427948,100.7949484
407,บริษัท เสรีวิสุทธิ์ ฮาร์ดแวร์ จำกัด,"387,389,389/1 ถ.รังสิต-นครนายก ต.ประชาธิปัตย์ อ.ธัญบุรี จ.ปทุมธานี 12130",02-533-0372,มี,13.9892241,100.6376302
408,ศรีมาสเตอร์,51 หมู่ที่ 11 ต.บึงคำพร้อย อ.ลำลูกกา จ.ปทุมธานี 12150,086-792-7732,ไม่มี,13.9337,100.714202
409,พงศธรคัลเลอร์เวิลด์,72/49 หมู่ที่ 6 ถนนลำลูกกา ต.บึงคำพร้อย อ.ลำลูกกา จ.ปทุมธานี 12150,02-987-9501-2,มี,13.933877,100.3962113
410,บริษัท ทรัพย์อนันต์ ฮาร์ดแวร์ จำกัด,"400,402 ถ.รังสิต-ปทุมธานี ต.ประชาธิปัตย์ อ.ธัญบุรี จ.ปทุมธานี 12130",02-991-7439,ไม่มี,13.987019,100.6039
411,บริษัท พลอยชมพู สมาร์ทโฮม จำกัด,35/10 หมู่ที่ 5 ต.ลาดสวาย อ.ลำลูกกา จ.ปทุมธานี 12150,02-193-4130,ไม่มี,13.963621,100.685015
412,ปรีชาอินเตอร์เพ้นท์,27/39 หมู่ที่ 8 ต.คลองหนึ่ง อ.คลองหลวง จ.ปทุมธานี 12120,02-516-3075,มี,14.060648,100.3278663
413,ปรีชา ซัพพลาย,41/4 หมู่ 8 ถ.พหลโยธิน ต.คลองสอง อ.คลองหลวง จ.ปทุมธานี 12120,02-516-3574,มี,14.0703912,100.6340518
414,บริษัท เอส พี โฮมมาร์ท จำกัด,12/213-7 หมู่ 7 ถ.ลำลูกกา ต.ลาดสวาย อ.ลำลูกกา จ.ปทุมธานี 12150,02-9934734-5,มี,13.932349,100.6743663
415,จิรภัทร,90/29 หมู่ที่ 2 ต.บึงยี่โถ อ.ธัญบุรี จ.ปทุมธานี 12130,02-990-9269,ไม่มี,13.995772,101.2230474
416,ห้างหุ้นส่วนจำกัด เฟอร์ วูด,8/6 หมู่ที่ 7 ถ.ลำลูกกา ต.ลาดสวาย อ.ลำลูกกา จ.ปทุมธานี 12150,02-998-6217,มี,13.9324815,100.6791835
417,บริษัท ป.นพชัย จำกัด,6/32 หมู่ที่ 5 ถ.ไสวประชาราษฎร์ ต.ลาดสวาย อ.ลำลูกกา จ.ปทุมธานี 12150,02-569-3334,ไม่มี,13.9438575,100.6425208
418,มณฑล วัสดุภัณฑ์,81/18 หมู่ที่ 12 ถ.เทพกุญชร 32 ต.คลองหนึ่ง อ.คลองหลวง จ.ปทุมธานี 12120,086-338-6346,มี,14.1062853,100.0350229
419,บริษัท มงคลชัย ฮาร์ดแวร์ จำกัด,39/23-27 หมู่ที่ 1 ถ.รังสิต-นครนายก ต.บึงน้ำรักษ์ อ.ธัญบุรี จ.ปทุมธานี 12110,02-546-2098,มี,14.037758,100.7776763
420,ร้าน พีฮาร์ดแวร์,51/747 หมู่ที่ 9 ถ.เลียบคลอง 3 ต.ลาดสวาย อ.ลำลูกกา จ.ปทุมธานี 12150,02-152-8319,ไม่มี,13.932335,100.6767323
421,บริษัท มงคล คลอง9 จำกัด,49/5 หมู่ที่ 3 ต.ลำผักกูด อ.ธัญบุรี จ.ปทุมธานี 12110,02-905-4536,มี,13.9459119,100.6233149
422,กานดากิจรุ่งเรือง,43/2 หมู่ที่ 2  ต.บึงน้ำรักษ์ อ.ธัญบุรี จ.ปทุมธานี 12110,02-955-8308,ไม่มี,14.066738,101.8039943
423,ร้านมงคลชัย,99/1901 หมู่ที่ 1 ต.ลำผักกูด อ.ธัญบุรี จ.ปทุมธานี 12110,02-957-0739,มี,14.0321397,100.5252709
424,บริษัท พนิตกิจเจริญ  จำกัด,5/2 หมู่ที่ 18 ต.บึงทองหลาง อ.ลำลูกกา จ.ปทุมธานี 12150,"02-563-1076, 02-563-1409",ไม่มี,13.951333,100.827602
425,บริษัท บัณฑิตวัฒนาภัณฑ์ กรุ๊ป จำกัด,971 ถ.รังสิต-นครนายก 67 ต.ประชาธิปัตย์ อ.ธัญบุรี จ.ปทุมธานี 12130,02-533-1249,มี,13.9950284,100.517207
426,เจ แอนด์ พี ซัพพลายส์,11/8-9 ม.8 ต.ลาดสวาย อ.ลำลูกกา จ.ปทุมธานี 12150,02-997-5168,ไม่มี,13.931196,100.41491
427,หจก. อ.อุไร คอนสตรัคชั่น,83/14 หมู่ 3 ต.ประชาธิปัตย์ อ.ธัญบุรี จ.ปทุมธานี 12130,02-992-9190,มี,13.985892,100.6145919
428,บริษัท มั่งคั่งทรัพย์อนันต์ วัสดุภัณฑ์ จำกัด,45/43 หมู่ที่ 18 ต.บึงคำพร้อย อ.ลำลูกกา จ.ปทุมธานี 12150,02-560-2166-67,มี,13.919071,100.7241423
429,ซี เฮช วู้ดส์,1/508 หมู่ที่ 18 ถ.ลำลูกกา-คลองสอง ต.คูคต อ.ลำลูกกา จ.ปทุมธานี 12130,02-532-1061-2,ไม่มี,13.9266194,100.5883489
430,คลอง 7 ฮาร์ดแวร์,30/2 หมู่ที่ 4 ต.บึงคำพร้อย อ.ลำลูกกา จ.ปทุมธานี 12150,089-227-1832,ไม่มี,13.963301,100.74644
431,บริษัท บางโพ ฮาร์ดแวร์ 2012 จำกัด,42/33 หมู่ 11  ต.ลาดสวาย อ.ลำลูกกา จ.ปทุมธานี 12150,02-192-3632,ไม่มี,13.921592,100.6979363
432,บริษัท ช.บุญฤทธิ์ ฮาร์ดแวร์ จำกัด,10/4 หมู่ที่ 10 ต.ลำลูกกา อ.ลำลูกกา จ.ปทุมธานี 12150,02-150-7658,ไม่มี,13.9567887,100.3634606
433,ห้างหุ้นส่วนจำกัด จิตพอเพียง,30/5 หมู่ที่ 9  ต.ลำไทร อ.ลำลูกกา จ.ปทุมธานี 12150,086-775-5454,ไม่มี,13.95744,100.6518713
434,บริษัท บุญไพศาลการช่าง จำกัด,438 หมู่ที่ 21 ต.ลำลูกกา อ.ลำลูกกา จ.ปทุมธานี 12150,02-993-0725,ไม่มี,13.9643735,99.7528146
435,บริษัท เซ็นเตอร์รุ่งเรือง จำกัด,90 หมู่ที่ 2 ต.บึงน้ำรักษ์ อ.ธัญบุรี จ.ปทุมธานี 12110,02-546-1551,มี,14.0672357,100.7047261
436,บริษัท เกรียงยงอินเตอร์เนชั่นแนล จำกัด,42/29 ซ.อินทามระ 1 ถ.สุทธิสารวินิจฉัย แขวงสามเสนใน เขตพญาไท กรุงเทพมหานคร 10400,02-2798490-7,ไม่มี,13.7895629,100.5518569
437,บริษัท สีรุ้ง จำกัด,"769,770,771 รัชดานิเวศน์ ถ.ประชาอุทิศ แขวงสามเสนนอก เขตห้วยขวาง กรุงเทพมหานคร 10320","02-274-3941, 619-7284",มี,13.7701335,100.5864979
438,บริษัท เวก้า เพ้นท์ แอนด์ คอนแมท จำกัด,1037 ถ.พหลโยธิน แขวงพญาไท เขตพญาไท กรุงเทพมหานคร 10400,02-619-5370-9,มี,13.7740825,100.5425256
439,บริษัท อรรถพันธ์ ค้าวัสดุ จำกัด,993 ถ.สะแกงาม แขวงแสมดำ เขตบางขุนเทียน กรุงเทพมหานคร 10150,081-900-5628,มี,13.6310357,100.4307281
440,หจก. ประสงค์แอนด์ซันส์ฮาร์ดแวร์,864/37-38 ตรอกวัดจันทร์ใน ถ.เจริญกรุง แขวงบางโคล่ เขตบางคอแหลม กรุงเทพมหานคร 10120,02-289-0690,ไม่มี,13.6926411,100.5095678
441,บริษัท สีเพชรบางบอน จำกัด,"236,238,240,242  ถ.กาญจนาภิเษก แขวงคลองบางพราน เขตบางบอน กรุงเทพมหานคร 10150",02-451-2363-4,มี,13.6731541,100.4067756
442,แสงทวี,"93,95 ถ.จันทน์ แขวงช่องนนทรี เขตยานนาวา กรุงเทพมหานคร 10120",02-286-3959,มี,13.7054657,100.534274
443,บริษัท เรืองทวีซัพพลาย จำกัด,572 ถ.พระรามที่ 3 แขวงบางโพงพาง เขตยานนาวา กรุงเทพมหานคร 10120,02-295-4011-4,มี,13.6837966,100.523302
444,บริษัท ซิตี้โฮมมาร์ท จำกัด,"37,39 ถ.กาญจนาภิเษก แขวงบางบอนใต้ เขตบางบอน กรุงเทพมหานคร 10150",02-453-0869-73,มี,13.658964,100.4050019
445,หจก. บุญเลิศฮาร์ดแวร์,"532,534 ถ.จันทน์ แขวงทุ่งวัดดอน เขตสาทร กรุงเทพมหานคร 10120","211-4599, 211-6231",มี,13.7073233,100.5215764
446,บริษัท สีรุ้ง (ชลบุรี) จำกัด,"10,10/1,10/2 ถ.สุขุมวิท ต.แสนสุข อ.เมืองชลบุรี จ.ชลบุรี 20130",,มี,13.2866796,101.2574223
447,หจก. แฟมิลี่ เพ้นท์,105-105/1 หมู่ที่ 4 ถ.ราชพฤกษ์ ต.บางรักน้อย อ.เมืองนนทบุรี จ.นนทบุรี 11000,02-289-0690,มี,13.8682258,100.4515697
448,ร้าน บุญเลิศ เพ้นท์,119/13-14 หมู่ที่ 6 ต.บางรักพัฒนา อ.บางบัวทอง จ.นนทบุรี 11110,02-194-5093,มี,13.9093884,100.3911795
449,หจก. ตีรภัทร,119/2 หมู่ 1 ถ.บางกรวย-ไทรน้อย ต.บางรักใหญ่ อ.บางบัวทอง จ.นนทบุรี 11110,081-6374665,มี,13.8789594,100.4338857
450,ตั้งชุงเฮงเทรดดิ้ง,2337/5 หมู่ที่ 6 ถ.เทพารักษ์ ต.เทพารักษ์ อ.เมืองสมุทรปราการ จ.สมุทรปราการ 10270,02-754-7123,มี,13.6197249,100.6447269
451,บริษัท ศิริมหาชัย มุกดาหาร จำกัด,88/11 ถ.ชยางกูร ข ต.มุกดาหาร อ.เมืองมุกดาหาร จ.มุกดาหาร 49000,,มี,16.5490978,102.0912264
452,บริษัท ศิริมหาชัย ศรีสะเกษ จำกัด,59 หมู่ 11  ต.หนองไผ่ อ.เมืองศรีสะเกษ จ.ศรีสะเกษ 33000,045-281999,มี,15.1206025,104.139782
453,บริษัท โฮมฮับ จำกัด,11/1 หมู่ที่ 6 ถ.มิตรภาพ  ต.กุดสระ อ.เมืองอุดรธานี จ.อุดรธานี 41000,,มี,15.2368958,104.8540781
454,บริษัท ดูโฮม จำกัด (มหาชน),37-47 ถ.ศรีมงคล ต.วารินชำราบ อ.วารินชำราบ จ.อุบลราชธานี 34190,045-352876,มี,15.2124615,104.8584552
455,บริษัท ดูโฮม จำกัด (มหาชน),37-47 ถ.ศรีมงคล ต.วารินชำราบ อ.วารินชำราบ จ.อุบลราชธานี 34190,045-352876,มี,14.9333301,102.1365016
456,บริษัท ดูโฮม จำกัด (มหาชน),37-47 ถ.ศรีมงคล ต.วารินชำราบ อ.วารินชำราบ จ.อุบลราชธานี 34190,,มี,14.0269636,100.7502091
457,บริษัท ดูโฮม จำกัด (มหาชน),37-47 ถ.ศรีมงคล ต.วารินชำราบ อ.วารินชำราบ จ.อุบลราชธานี 34190,045-352-876,มี,16.5166191,102.8326116
458,บริษัท ดูโฮม จำกัด (มหาชน),37-47 ถ.ศรีมงคล ต.วารินชำราบ อ.วารินชำราบ จ.อุบลราชธานี 34190,045-352-862,มี,17.4728416,102.795839
459,บริษัท ดูโฮม จำกัด (มหาชน),37-47 ถ.ศรีมงคล ต.วารินชำราบ อ.วารินชำราบ จ.อุบลราชธานี 34190,045-352876,มี,13.5230966,100.1794025
460,บริษัท ดูโฮม จำกัด (มหาชน),37-47 ถ.ศรีมงคล ต.วารินชำราบ อ.วารินชำราบ จ.อุบลราชธานี 34190,,มี,13.9495798,100.4226554
461,บริษัท ดูโฮม จำกัด (มหาชน),37-47 ถ.ศรีมงคล ต.วารินชำราบ อ.วารินชำราบ จ.อุบลราชธานี 34190,045-352876,มี,18.6657132,99.0516436
462,บริษัท ดูโฮม จำกัด (มหาชน),37-47 ถ.ศรีมงคล ต.วารินชำราบ อ.วารินชำราบ จ.อุบลราชธานี 34190,,มี,,
463,บริษัท ดูโฮม จำกัด (มหาชน),37-47 ถ.ศรีมงคล ต.วารินชำราบ อ.วารินชำราบ จ.อุบลราชธานี 34190,045-352-888,มี,,
464,บริษัท ดูโฮม จำกัด (มหาชน),37-47 ถ.ศรีมงคล ต.วารินชำราบ อ.วารินชำราบ จ.อุบลราชธานี 34190,045-352-888,ไม่มี,,
465,บริษัท ดูโฮม จำกัด (มหาชน),37-47 ถ.ศรีมงคล ต.วารินชำราบ อ.วารินชำราบ จ.อุบลราชธานี 34190,045-352888,มี,,
466,บริษัท โฮมฮับ จำกัด,270 หมู่ 7 ถ.เลี่ยงเมือง ต.แจระแม อ.เมืองอุบลราชธานี จ.อุบลราชธานี 34000,045-324111-6,มี,15.2157276,104.814029
467,บริษัท โฮมฮับ จำกัด,270 หมู่ 7 ถ.เลี่ยงเมือง ต.แจระแม อ.เมืองอุบลราชธานี จ.อุบลราชธานี 34000,045-324111-6,มี,15.2156377,104.8139757
468,บริษัท โฮมฮับ จำกัด,หมู่บ้าน บ้านทัพไท 270/1 หมู่ที่ 7 ถ.เลี่ยงเมือง ต.แจระแม อ.เมืองอุบลราชธานี จ.อุบลราชธานี 34000,,มี,,
469,บริษัท โฮมฮับ จำกัด,385 ถ.กันทรลักษณ์ ต.วารินชำราบ อ.วารินชำราบ จ.อุบลราชธานี 34190,,มี,,
470,บริษัท พี จี แอล เทรดดิ้ง จำกัด,279/1 ถ.แจ้งสนิท ต.ในเมือง อ.เมืองอุบลราชธานี จ.อุบลราชธานี 34000,045-281-999,ไม่มี,15.2411511,105.2320397
471,บริษัท ศิริมหาชัย อุบลราชธานี จำกัด,279/3 ถ.แจ้งสนิท ต.ในเมือง อ.เมืองอุบลราชธานี จ.อุบลราชธานี 34000,045-281999#305,มี,15.2549466,104.8347323
472,บริษัท บุญถาวรเซรามิค จำกัด สาขาพุทธมณฑล,"29/41,469 ถนนบรมราชชนนี แขวงศาลาธรรมสพน์ เขตทวีวัฒนา กรุงเทพมหานคร 10170",,มี,13.7865178,100.3728267
473,บริษัท บุญถาวรเซรามิค 2000 จำกัด, 243 ถ.รัชดาภิเษก แขวงรัชดาภิเษก เขตดินแดง กรุงเทพมหานคร 10400,,มี,13.7945839,100.5743267
474,บริษัท บุญถาวรเซรามิค จำกัด สาขาเกษตร-นวมินทร์,"999,999/1 ซ.ประเสริฐมนูกิจ 33 ถ.ประเสริฐมนูกิจ แขวงนวลจันทร์ เขตบึงกุ่ม กรุงเทพมหานคร 10240",02-943-9056,มี,13.8207957,100.6337386
475,บริษัท ซีอาร์ซี เพาเวอร์ รีเทล จำกัด,919/555 ชั้น 15 อาคารเซาท์ทาวเวอร์ ถ.สีลม แขวงสีลม เขตบางรัก กรุงเทพมหานคร 10500,206-9451,ไม่มี,13.726013,100.526743
476,บริษัท ซีอาร์ซี ไทวัสดุ จำกัด(สาขาพระราม2),160 อาคารศูนย์การค้าเซ็นทรัลพลาซาพระราม 2 ชั้นที่ใต้ดิน ยูนิตโฮมเวิร์ค ถ.พระรามที่ 2 แขวงแสมดำ เขตบางขุนเทียน กรุงเทพมหานคร 10150,,ไม่มี,13.652284,100.4234276
477,บริษัท ซีอาร์ซี ไทวัสดุ จำกัด(สาขารัชดาภิเษก),919/555 ชั้น 15 อาคารเซาท์ทาวเวอร์ ถ.สีลม แขวงสีลม เขตบางรัก กรุงเทพมหานคร 10500,"206-9451, 206-9300",ไม่มี,13.726239,100.526799
478,บริษัท ซีอาร์ซี ไทวัสดุ จำกัด(สาขาหัวหมาก),177 อาคารศูนย์การค้าเซ็นทรัล เพาเวอร์ เซ็นเตอร์ ชั้น 15 ถ.รามคำแหง แขวงหัวหมาก เขตบางกะปิ กรุงเทพมหานคร 10240,,ไม่มี,13.8114924,100.7354128
479,บริษัท ซีอาร์ซี ไทวัสดุ จำกัด(สาขาเพชรเกษม),1759/4 ถ.เพชรเกษม แขวงหลักสอง เขตบางแค กรุงเทพมหานคร 10160,,มี,,
480,บริษัท ซีอาร์ซี ไทวัสดุ จำกัด(สาขาสุขาภิบาล 3),252 ถ.รามคำแหง แขวงมีนบุรี เขตมีนบุรี กรุงเทพมหานคร 10510,02-101-7777,มี,13.8114804,100.7353866
481,บริษัท ซีอาร์ซี ไทวัสดุ จำกัด(สาขานวมินทร์),"345,345/1 ถ.นวมินทร์ แขวงนวลจันทร์ เขตบึงกุ่ม กรุงเทพมหานคร 10240",,มี,13.8239727,100.656089
482,บริษัท ซีอาร์ซี ไทวัสดุ จำกัด สาขาไทวัสดุ พระราม 2,268/2 ถ.พระรามที่ 2 แขวงแสมดำ เขตบางขุนเทียน กรุงเทพมหานคร 10150,,มี,13.6522231,100.4233491
483,บริษัท ซีอาร์ซี ไทวัสดุ จำกัด (สาขาหนองจอก),97 ถ.เลียบวารี แขวงกระทุ่มราย เขตหนองจอก กรุงเทพมหานคร 10530,02-103-3333,มี,,
484,บริษัท ซีอาร์ซี ไทวัสดุ จำกัด(สาขากาญจนบุรี),111 หมู่ 9  ต.ปากแพรก อ.เมืองกาญจนบุรี จ.กาญจนบุรี 71000,,มี,14.0207616,99.5557865
485,บริษัท ซีอาร์ซี ไทวัสดุ จำกัด (สาขาขอนแก่น),224 หมู่ 1  ต.สำราญ อ.เมืองขอนแก่น จ.ขอนแก่น 40000,,มี,16.5239455,102.831732
486,บริษัท ซีอาร์ซี ไทวัสดุ จำกัด(สาขามิตรภาพ ขอนแก่น),290/2 หมู่ที่ 17 ต.ในเมือง อ.เมืองขอนแก่น จ.ขอนแก่น 40000,,มี,16.523724,102.8317603
487,บริษัท ซีอาร์ซี ไทวัสดุ จำกัด(สาขาจันทบุรี),999 หมู่ 2  ต.ท่าช้าง อ.เมืองจันทบุรี จ.จันทบุรี 22000,,มี,14.774294,100.6938556
488,บริษัท ซีอาร์ซี ไทวัสดุ จำกัด(สาขาฉะเชิงเทรา),99 หมู่ 2  ต.โสธร อ.เมืองฉะเชิงเทรา จ.ฉะเชิงเทรา 24000,,มี,13.6638025,101.049287
489,บริษัท บุญถาวรเซรามิค จำกัด สาขาพัทยา,88/8 หมู่ที่ 9 ต.หนองปรือ อ.บางละมุง จ.ชลบุรี 20150,038-052201-22,มี,12.9393038,100.902706
490,บริษัท บุญถาวรเซรามิค จำกัด สาขาสัตหีบ,88 หมู่ที่ 6 ต.บางเสร่ อ.สัตหีบ จ.ชลบุรี 20250,02-657-1106,มี,,
491,บริษัท ซีอาร์ซี ไทวัสดุ จำกัด(สาขาพัทยา),565/66 หมู่ที่ 10 ต.หนองปรือ อ.บางละมุง จ.ชลบุรี 20150,,มี,12.8870455,100.8975089
492,บริษัท ซีอาร์ซี ไทวัสดุ จำกัด(สาขาชลบุรี),413/81 หมู่ที่ 5  ต.บ้านสวน อ.เมืองชลบุรี จ.ชลบุรี 20000,,มี,13.355999,100.9987746
493,บริษัท ซีอาร์ซี ไทวัสดุ จำกัด(สาขาพัทยาใต้),80/3 หมู่ที่ 12  ต.หนองปรือ อ.บางละมุง จ.ชลบุรี 20150,,มี,12.8866273,100.89753
494,บริษัท ซีอาร์ซี ไทวัสดุ จำกัด(สาขาศรีราชา),92/10 หมู่ที่ 10 ต.หนองขาม อ.ศรีราชา จ.ชลบุรี 20230,,มี,13.1417287,100.9853851
495,บริษัท ซีอาร์ซี ไทวัสดุ จำกัด (สาขาอมตะนคร),103/69 หมู่ที่ 12 ต.นาป่า อ.เมืองชลบุรี จ.ชลบุรี 20000,,ไม่มี,,
496,บริษัท ซีอาร์ซี ไทวัสดุ จำกัด(สาขาเชียงราย),99/20 หมู่ที่ 13  ต.สันทราย อ.เมืองเชียงราย จ.เชียงราย 57000,,มี,19.8731327,99.8278846
497,บริษัท บุญถาวรเซรามิค จำกัด สาขาเชียงใหม่,246 หมู่ที่ 2  ต.หนองผึ้ง อ.สารภี จ.เชียงใหม่ 50140,,มี,18.744482,99.0348035
498,บริษัท ซีอาร์ซี ไทวัสดุ จำกัด(สาขาเชียงใหม่),111 หมู่ 1  ต.ไชยสถาน อ.สารภี จ.เชียงใหม่ 50140,,มี,18.7210278,99.0420106
499,บริษัท ซีอาร์ซี ไทวัสดุ จำกัด(สาขาเชียงใหม่ แอร์พอร์ต),201 หมู่ที่ 7  ต.สุเทพ อ.เมืองเชียงใหม่ จ.เชียงใหม่ 50200,,มี,,
500,บริษัท ซีอาร์ซี ไทวัสดุ จำกัด(สาขาตรัง),7/4 หมู่ 7 ต.บ้านโพธิ์ อ.เมืองตรัง จ.ตรัง 92000,,มี,7.5675845,99.6448136
501,บริษัท ซีอาร์ซี ไทวัสดุ จำกัด(สาขาตาก),234 หมู่ 1 ต.แม่ท้อ อ.เมืองตาก จ.ตาก 63000,,มี,16.8491018,99.1119193
502,บริษัท ซีอาร์ซี ไทวัสดุ จำกัด(สาขาศาลายา),8 หมู่ 1  ต.ทรงคนอง อ.สามพราน จ.นครปฐม 73210,,มี,13.7855883,100.2736591
503,บริษัท ซีอาร์ซี ไทวัสดุ จำกัด(สาขานครปฐม),200 หมู่ที่ 9 ต.ลำพยา อ.เมืองนครปฐม จ.นครปฐม 73000,,มี,,
504,บริษัท ซีอาร์ซี ไทวัสดุ จำกัด(สาขานครราชสีมา),475 หมู่ที่ 1 ต.ปรุใหญ่ อ.เมืองนครราชสีมา จ.นครราชสีมา 30000,,มี,,
505,บริษัท ซีอาร์ซี ไทวัสดุ จำกัด (สาขาปากช่อง),7 หมู่ที่ 11 ต.หนองน้ำแดง อ.ปากช่อง จ.นครราชสีมา 30130,,มี,,
506,บริษัท ซีอาร์ซี ไทวัสดุ จำกัด (สาขานครศรีธรรมราช),162 หมู่ที่ 18 ต.ท่าเรือ อ.เมืองนครศรีธรรมราช จ.นครศรีธรรมราช 80000,,ไม่มี,,
507,บริษัท บุญถาวรเซรามิค จำกัด สาขาราชพฤกษ์,8/8 หมู่ที่ 4 ต.บางรักน้อย อ.เมืองนนทบุรี จ.นนทบุรี 11000,,มี,,
508,บริษัท ซีอาร์ซี ไทวัสดุ จำกัด(สาขารัตนาธิเบศร์),68/100 ห้างเซ็นทรัลรัตนาธิเบศร์ ชั้น 1 ม.8 ถ.รัตนาธิเบศร์ ต.บางกระสอ อ.เมืองนนทบุรี จ.นนทบุรี 11000,,มี,13.86542,100.4958243
509,บริษัท ซีอาร์ซี ไทวัสดุ จำกัด(สาขาราชพฤกษ์),111 หมู่ 5 ต.มหาสวัสดิ์ อ.บางกรวย จ.นนทบุรี 11130,,มี,13.803387,100.4461423
510,บริษัท ซีอาร์ซี ไทวัสดุ จำกัด(สาขาบางบัวทอง),59/9 หมู่ 1 ต.บางบัวทอง อ.บางบัวทอง จ.นนทบุรี 11110,,มี,13.9284956,100.4139724
511,บริษัท ซีอาร์ซี ไทวัสดุ จำกัด(สาขาแจ้งวัฒนะ),78 หมู่ที่ 4 ต.บางตลาด อ.ปากเกร็ด จ.นนทบุรี 11120,,มี,13.8995466,100.5418948
512,บริษัท ซีอาร์ซี ไทวัสดุ จำกัด(สาขาชัยพฤกษ์),46/21 หมู่ที่ 5 ต.บางพลับ อ.ปากเกร็ด จ.นนทบุรี 11120,,มี,13.9283679,100.4139346
513,บริษัท ซีอาร์ซี ไทวัสดุ จำกัด (สาขาบ้านแอนด์บียอนด์ โลตัสบางใหญ่),90 หมู่ที่ 5 ต.บางคูเวียง อ.บางกรวย จ.นนทบุรี 11130,02-103-3333,ไม่มี,,
514,บริษัท ซีอาร์ซี ไทวัสดุ จำกัด(สาขาบุรีรัมย์),55 หมู่ 1  ต.บ้านบัว อ.เมืองบุรีรัมย์ จ.บุรีรัมย์ 31000,,มี,14.9565297,103.0529341
515,บริษัท บุญถาวรเซรามิค จำกัด,23 หมู่ที่ 3 ถ.พหลโยธิน ต.คลองหนึ่ง อ.คลองหลวง จ.ปทุมธานี 12120,02-6931108-17,มี,14.0266409,100.6155757
516,บริษัท บุญถาวรเซรามิค จำกัด สาขาศูนย์กระจายสินค้ารังสิต,19/112 หมู่ที่ 3 ต.คลองหนึ่ง อ.คลองหลวง จ.ปทุมธานี 12120,02-657-1106,มี,,
517,บริษัท ซีอาร์ซี ไทวัสดุ จำกัด(สาขารังสิต),94 อาคารฟิวเจอร์พาร์ครังสิต ชั้นบีเอฟ ยูนิต เอ 1-2 ถ.พหลโยธิน ต.ประชาธิปัตย์ อ.ธัญบุรี จ.ปทุมธานี 12130,,มี,14.0163635,100.6152135
518,บริษัท ซีอาร์ซี ไทวัสดุ จำกัด(สาขาโรบินสันรังสิต),เลขที่ 94 ชั้น 3 เอฟ ถ.พหลโยธิน ต.ประชาธิปัตย์ อ.ธัญบุรี จ.ปทุมธานี 12130,02-206-9300,ไม่มี,13.991037,100.61533
519,บริษัท ซีอาร์ซี ไทวัสดุ จำกัด(สาขาปทุมธานี),99/10 หมู่ที่ 5  ต.บางเดื่อ อ.เมืองปทุมธานี จ.ปทุมธานี 12000,,มี,13.9825532,100.5147627
520,บริษัท ซีอาร์ซี ไทวัสดุ จำกัด(สาขารังสิต 1),13/214 หมู่ที่ 2 ต.คลองหนึ่ง อ.คลองหลวง จ.ปทุมธานี 12120,,มี,14.0167206,100.6152273
521,บริษัท ซีอาร์ซี ไทวัสดุ จำกัด(สาขาลำลูกกา),67 หมู่ที่ 11 ต.ลำลูกกา อ.ลำลูกกา จ.ปทุมธานี 12150,,มี,13.9387,100.752134
522,บริษัท บุญถาวรเซรามิค จำกัด สาขาหัวหิน,4/48 ซ.หมู่บ้านบ่อฝ้าย ต.หัวหิน อ.หัวหิน จ.ประจวบคีรีขันธ์ 77110,02-693-1108-17,มี,12.595411,99.9494091
523,บริษัท ซีอาร์ซี ไทวัสดุ จำกัด (สาขาศรีมหาโพธิ),898 หมู่ที่ 7 ต.ท่าตูม อ.ศรีมหาโพธิ จ.ปราจีนบุรี 25140,,มี,,
524,บริษัท ซีอาร์ซี ไทวัสดุ จำกัด (สาขาอี-คอมเมิร์ช),345 หมู่ที่ 5 ต.บ่อตาโล่ อ.วังน้อย จ.พระนครศรีอยุธยา 13170,035-950-100#1148,ไม่มี,,
525,บริษัท ซีอาร์ซี ไทวัสดุ จำกัด(สาขาพิษณุโลก),788 หมู่ 7 ต.สมอแข อ.เมืองพิษณุโลก จ.พิษณุโลก 65000,055-232400,มี,16.8178751,100.3333506
526,บริษัท ซีอาร์ซี ไทวัสดุ จำกัด(สาขาชะอำ),829 ถ.เพชรเกษม(บ่อแขม)  ต.ชะอำ อ.ชะอำ จ.เพชรบุรี 76120,,มี,12.7292106,99.9563117
527,บริษัท ซีอาร์ซี ไทวัสดุ จำกัด (สาขาเพชรบุรี),120 หมู่ที่ 9 ต.ท่าเสน อ.บ้านลาด จ.เพชรบุรี 76150,,มี,,
528,บริษัท ซีอาร์ซี ไทวัสดุ จำกัด(สาขาเพชรบูรณ์),40 หมู่ 5  ต.บ้านโตก อ.เมืองเพชรบูรณ์ จ.เพชรบูรณ์ 67000,,มี,16.3767436,101.1173292
529,บริษัท ซีอาร์ซี ไทวัสดุ จำกัด(สาขาภูเก็ต 1),79 หมู่ 5 ต.วิชิต อ.เมืองภูเก็ต จ.ภูเก็ต 83000,,มี,7.987032,98.3577528
530,บริษัท ซีอาร์ซี ไทวัสดุ จำกัด(สาขาภูเก็ต),46/13 หมู่ที่ 5  ต.ศรีสุนทร อ.ถลาง จ.ภูเก็ต 83110,,มี,7.9869856,98.3580088
531,บริษัท ซีอาร์ซี ไทวัสดุ จำกัด(สาขามหาสารคาม),303 หมู่ 11  ต.เกิ้ง อ.เมืองมหาสารคาม จ.มหาสารคาม 44000,,มี,16.2120961,103.2731934
532,บริษัท ซีอาร์ซี ไทวัสดุ จำกัด(สาขามุกดาหาร),311 ถ.ชยางกูร ข ต.มุกดาหาร อ.เมืองมุกดาหาร จ.มุกดาหาร 49000,,มี,16.5817196,104.7198588
533,บริษัท ซีอาร์ซี ไทวัสดุ จำกัด(สาขาร้อยเอ็ด),444 หมู่ 7  ต.ดงลาน อ.เมืองร้อยเอ็ด จ.ร้อยเอ็ด 45000,,มี,16.0556344,103.6200447
534,บริษัท บุญถาวรเซรามิค จำกัด สาขาระยอง,88/89 หมู่ที่ 4 ต.ทับมา อ.เมืองระยอง จ.ระยอง 21000,,มี,,
535,บริษัท ซีอาร์ซี ไทวัสดุ จำกัด(สาขาระยอง),999/9 หมู่ 1  ต.เชิงเนิน อ.เมืองระยอง จ.ระยอง 21000,,มี,12.6720774,101.3050072
536,บริษัท ซีอาร์ซี ไทวัสดุ จำกัด (สาขาบ้านฉาง),55/4 หมู่ที่ 1 ต.บ้านฉาง อ.บ้านฉาง จ.ระยอง 21130,,มี,,
537,บริษัท ซีอาร์ซี ไทวัสดุ จำกัด(สาขาลพบุรี),555 หมู่ 4  ต.กกโก อ.เมืองลพบุรี จ.ลพบุรี 15000,,มี,14.7745544,100.6942478
538,บริษัท ซีอาร์ซี ไทวัสดุ จำกัด(สาขาลำปาง),70 ถ.ไฮเวย์-ลำปาง-งาว  ต.ชมพู อ.เมืองลำปาง จ.ลำปาง 52100,,มี,18.269734,99.4750723
539,บริษัท ซีอาร์ซี ไทวัสดุ จำกัด(สาขาสกลนคร),333 หมู่ 15 ต.ห้วยยาง อ.เมืองสกลนคร จ.สกลนคร 47000,,มี,17.1401049,104.1052996
540,บริษัท ซีอาร์ซี ไทวัสดุ จำกัด(สาขาหาดใหญ่),1119 หมู่ 1 ถ.เลี่ยงเมือง (สายเอเชีย) ต.ควนลัง อ.หาดใหญ่ จ.สงขลา 90110,,มี,6.9866064,100.430196
541,บริษัท บุญถาวรเซรามิค จำกัด สาขาสุวรรณภูมิ,15/2 หมู่ที่ 14 ถ.บางนา-ตราด ต.บางพลีใหญ่ อ.บางพลี จ.สมุทรปราการ 10540,,มี,13.645408,100.691542
542,บริษัท ซีอาร์ซี ไทวัสดุ จำกัด,88/88 หมู่ที่ 13 ต.บางแก้ว อ.บางพลี จ.สมุทรปราการ 10540,02-2069300,ไม่มี,13.6523523,100.6768436
543,บริษัท ซีอาร์ซี ไทวัสดุ จำกัด (สาขาไดเร็คเซลส์),88/88 หมู่ที่ 13 ต.บางแก้ว อ.บางพลี จ.สมุทรปราการ 10540,,ไม่มี,13.6283903,100.6410042
544,บริษัท ซีอาร์ซี ไทวัสดุ จำกัด(สาขาบางนา),54 หมู่ที่ 13  ต.บางแก้ว อ.บางพลี จ.สมุทรปราการ 10540,02-206-9300,มี,13.6524253,100.6767089
545,บริษัท ซีอาร์ซี ไทวัสดุ จำกัด(สาขาบางพลี),111/15 หมู่ที่ 9  ต.บางปลา อ.บางพลี จ.สมุทรปราการ 10540,02-100-8742,มี,13.5933767,100.7643843
546,บริษัท บุญถาวรเซรามิค จำกัด สาขาพระราม 2,82/4 หมู่ที่ 1 ต.บางน้ำจืด อ.เมืองสมุทรสาคร จ.สมุทรสาคร 74000,,มี,13.6077128,100.3756139
547,บริษัท ซีอาร์ซี ไทวัสดุ จำกัด(สาขามหาชัย),5/5 หมู่ 3 ต.นาดี อ.เมืองสมุทรสาคร จ.สมุทรสาคร 74000,,มี,13.5789791,100.3047233
548,บริษัท ซีอาร์ซี ไทวัสดุ จำกัด(สาขาอ้อมน้อย),200/101 หมู่ที่ 6 ต.อ้อมน้อย อ.กระทุ่มแบน จ.สมุทรสาคร 74130,,มี,,
549,บริษัท ซีอาร์ซี ไทวัสดุ จำกัด(สาขาสระบุรี),88/9 หมู่ที่ 8  ต.ตลิ่งชัน อ.เมืองสระบุรี จ.สระบุรี 18000,,มี,14.5430946,100.9508635
550,บริษัท ซีอาร์ซี ไทวัสดุ จำกัด(สาขาสุพรรณบุรี),77/7 หมู่ 4  ต.สนามชัย อ.เมืองสุพรรณบุรี จ.สุพรรณบุรี 72000,,มี,14.4764603,100.1316541
551,บริษัท ซีอาร์ซี ไทวัสดุ จำกัด(สาขาสุราษฎร์ธานี),43 หมู่ 1 ต.ท่าทองใหม่ อ.กาญจนดิษฐ์ จ.สุราษฎร์ธานี 84290,,มี,9.1476966,99.3986769
552,บริษัท ซีอาร์ซี ไทวัสดุ จำกัด(สาขาสุรินทร์),322 หมู่ 2  ต.นอกเมือง อ.เมืองสุรินทร์ จ.สุรินทร์ 32000,,มี,14.8634219,103.523901
553,บริษัท ซีอาร์ซี ไทวัสดุ จำกัด(สาขาหนองบัวลำภู),310 หมู่ที่ 5  ต.หนองภัยศูนย์ อ.เมืองหนองบัวลำภู จ.หนองบัวลำภู 39000,,มี,17.2266749,102.4089381
554,บริษัท บุญถาวรเซรามิค จำกัด สาขาอุดรธานี,534 หมู่ที่ 4 ต.บ้านเลื่อม อ.เมืองอุดรธานี จ.อุดรธานี 41000,,มี,17.4041631,102.7658183
555,บริษัท ซีอาร์ซี ไทวัสดุ จำกัด(สาขาอุดรธานี),608 หมู่ที่ 4 ต.หนองขอนกว้าง อ.เมืองอุดรธานี จ.อุดรธานี 41000,,มี,17.3759343,102.8256907
556,บริษัท ซีอาร์ซี ไทวัสดุ จำกัด(สาขาอุบลราชธานี),267 หมู่ 7  ต.แจระแม อ.เมืองอุบลราชธานี จ.อุบลราชธานี 34000,,มี,15.2331177,104.8221937
557,บริษัท โฮมโปรดักส์เซ็นเตอร์ จำกัด(มหาชน) สาขาแฟชั่น ไอส์แลนด์,"587,589 ถ.รามอินทรา แขวงคันนายาว เขตคันนายาว กรุงเทพมหานคร 10230",947-6365,มี,13.8251692,100.6765509
558,บริษัท โฮมโปรดักส์เซ็นเตอร์ จำกัด(มหาชน) สาขารัชดาภิเษก,125 ถ.รัชดาภิเษก แขวงดินแดง เขตดินแดง กรุงเทพมหานคร 10320,641-2900,มี,13.7686742,100.572086
559,บริษัท โฮมโปรดักส์เซ็นเตอร์ จำกัด(มหาชน) สาขาฟิวเจอร์มาร์ท,295 ถ.พระราม 3 แขวงบางคอแหลม เขตบางคอแหลม กรุงเทพมหานคร 10120,689-0844,มี,,
560,บริษัท โฮมโปรดักส์เซ็นเตอร์ จำกัด(มหาชน) สาขาเดอะมอลล์บางแค,518 ถ.เพชรเกษม แขวงบางแคเหนือ เขตบางแค กรุงเทพมหานคร 10160,454-9299,มี,13.7150629,100.4061118
561,บริษัท โฮมโปรดักส์เซ็นเตอร์ จำกัด(มหาชน) สาขาเพลินจิต,55 ถ.วิทยุ แขวงลุมพินี เขตปทุมวัน กรุงเทพมหานคร 10330,02-655-3400,ไม่มี,13.743379,100.5474553
562,บริษัท โฮมโปรดักส์เซ็นเตอร์ จำกัด(มหาชน) สาขาพาราไดซ์ พาร์ค,61 ถ.ศรีนครินทร์ แขวงหนองบอน เขตประเวศ กรุงเทพมหานคร 10250,746-0377,มี,13.6866202,100.6468712
563,บริษัท โฮมโปรดักส์เซ็นเตอร์ จำกัด(มหาชน) สาขารามคำแหง,647/19 ถ.รามคำแหง (สุขาภิบาล3) แขวงหัวหมาก เขตบางกะปิ กรุงเทพมหานคร 10240,958-5678,มี,13.7694105,100.6605409
564,บริษัท โฮมโปรดักส์เซ็นเตอร์ จำกัด(มหาชน) สาขาพระราม 2,45/581 หมู่ที่ 6 แขวงแสมดำ เขตบางขุนเทียน กรุงเทพมหานคร 10150,,มี,13.6637331,100.4420494
565,บริษัท โฮมโปรดักส์เซ็นเตอร์ จำกัด(มหาชน) สาขาลาดพร้าว,669 ถ.ลาดพร้าว แขวงจอมพล เขตจตุจักร กรุงเทพมหานคร 10900,02-832-1472-78,มี,13.820252,100.575975
566,บริษัท โฮมโปรดักส์เซ็นเตอร์ จำกัด(มหาชน) สาขาเอกมัย - รามอินทรา,41 ถ.ประดิษฐ์มนูธรรม แขวงลาดพร้าว เขตลาดพร้าว กรุงเทพมหานคร 10230,,มี,13.7990407,100.6141994
567,บริษัท โฮมโปรดักส์เซ็นเตอร์ จำกัด(มหาชน) สาขาเพชรเกษม,224 ถ.เพชรเกษม แขวงหนองค้างพลู เขตหนองแขม กรุงเทพมหานคร 10160,,มี,13.7073929,100.3655538
568,บริษัท โฮมโปรดักส์เซ็นเตอร์ จำกัด(มหาชน) สาขาสุขาภิบาล 3,101 ถ.รามคำแหง แขวงมีนบุรี เขตมีนบุรี กรุงเทพมหานคร 10510,,มี,13.8058201,100.7261936
569,บริษัท โฮมโปรดักส์เซ็นเตอร์ จำกัด(มหาชน) สาขาพระราม 3,497/1 ถ.พระรามที่ 3 แขวงบางโคล่ เขตบางคอแหลม กรุงเทพมหานคร 10120,02-029-7500,มี,13.686788,100.5168993
570,บริษัท โฮมโปรดักส์ เซ็นเตอร์ จำกัด(มหาชน) สาขาพระราม9,903 ถ.พระราม9 แขวงสวนหลวง เขตสวนหลวง กรุงเทพมหานคร 10250,02-029-7600,มี,13.7427489,100.6139624
571,บริษัท โฮมโปรดักส์เซ็นเตอร์ จำกัด(มหาชน) สาขาโลตัส บางแค,266 ถ.เพชรเกษม แขวงบางแคเหนือ เขตบางแค กรุงเทพมหานคร 10160,,มี,13.714571,100.406129
572,บริษัท โฮมโปรดักส์เซ็นเตอร์ จำกัด(มหาชน) สาขากัลปพฤกษ์,604 ถ.กัลปพฤกษ์ แขวงบางหว้า เขตภาษีเจริญ กรุงเทพมหานคร 10160,,มี,,
573,บริษัท โฮมโปรดักส์เซ็นเตอร์ จำกัด(มหาชน) สาขาจรัญสนิทวงศ์,110/8 ถ.จรัญสนิทวงศ์ แขวงบ้านช่างหล่อ เขตบางกอกน้อย กรุงเทพมหานคร 10700,,มี,,
574,บริษัท โฮมโปรดักส์เซ็นเตอร์ จำกัด(มหาชน) สาขาศูนย์การค้าแฟชั่นไอส์แลนด์,589/10 ถ.รามอินทรา แขวงคันนายาว เขตคันนายาว กรุงเทพมหานคร 10230,02-029-7700,มี,,
575,บริษัท เมกา โฮม เซ็นเตอร์ จำกัด สาขามีนบุรี,81 ถ.สุวินทวงศ์ แขวงมีนบุรี เขตมีนบุรี กรุงเทพมหานคร 10510,,มี,13.8194232,100.7353324
576,บริษัท โฮมโปรดักส์เซ็นเตอร์ จำกัด(มหาชน) สาขากระบี่,349 หมู่ 11 ต.กระบี่น้อย อ.เมืองกระบี่ จ.กระบี่ 81000,,มี,8.1077764,98.9278694
577,บริษัท โฮมโปรดักส์เซ็นเตอร์ จำกัด(มหาชน) สาขากาญจนบุรี,15 หมู่ที่ 1 ต.ท่าล้อ อ.ท่าม่วง จ.กาญจนบุรี 71000,,มี,13.9942366,99.5610629
578,บริษัท โฮมโปรดักส์เซ็นเตอร์ จำกัด(มหาชน) สาขาขอนแก่น,177/98 หมู่ที่ 17 ต.ในเมือง อ.เมืองขอนแก่น จ.ขอนแก่น 40000,,มี,16.4093813,102.8173308
579,บริษัท โฮมโปรดักส์เซ็นเตอร์ จำกัด(มหาชน) สาขาจันทบุรี,21/18 หมู่ 11  ต.พลับพลา อ.เมืองจันทบุรี จ.จันทบุรี 22000,039-419000,มี,12.6176153,102.1436505
580,บริษัท โฮมโปรดักส์เซ็นเตอร์ จำกัด(มหาชน) สาขาฉะเชิงเทรา,187/9 ถ.ฉะเชิงเทรา-บางปะกง ต.หน้าเมือง อ.เมืองฉะเชิงเทรา จ.ฉะเชิงเทรา 24000,038-812023,มี,13.6820728,101.0531802
581,บริษัท โฮมโปรดักส์เซ็นเตอร์ จำกัด(มหาชน) สาขาพัทยา,333 ม.9 ต.หนองปรือ อ.บางละมุง จ.ชลบุรี 20260,,มี,12.9407119,100.9031222
582,บริษัท โฮมโปรดักส์เซ็นเตอร์ จำกัด(มหาชน) สาขาชลบุรี,15/16 หมู่ที่ 3 ต.ห้วยกะปิ อ.เมืองชลบุรี จ.ชลบุรี 20000,,มี,12.9408671,100.9031675
583,บริษัท โฮมโปรดักส์เซ็นเตอร์ จำกัด(มหาชน) สาขาศรีราชา,99/123 หมู่ที่ 10  ต.หนองขาม อ.ศรีราชา จ.ชลบุรี 20110,,มี,13.1408129,100.9861859
584,บริษัท โฮมโปรดักส์เซ็นเตอร์ จำกัด(มหาชน) สาขาพัทยาเหนือ,384/40 หมู่ที่ 6 ต.นาเกลือ อ.บางละมุง จ.ชลบุรี 20150,02-832-1000,มี,12.9407119,100.9031222
585,บริษัท โฮมโปรดักส์เซ็นเตอร์ จำกัด(มหาชน) สาขาชลบุรี (อมตะ),108 หมู่ที่ 12 ต.นาป่า อ.เมืองชลบุรี จ.ชลบุรี 20000,02-832-1000,มี,13.4025814,101.0335296
586,บริษัท โฮมโปรดักส์เซ็นเตอร์ จำกัด(มหาชน) สาขาบางเสร่,133 หมู่ที่ 8 ต.นาจอมเทียน อ.สัตหีบ จ.ชลบุรี 20250,,มี,12.776052,100.9116573
587,บริษัท เมกา โฮม เซ็นเตอร์ จำกัด สาขาบ่อวิน,333/143 หมู่ที่ 3  ต.บ่อวิน อ.ศรีราชา จ.ชลบุรี 20230,,มี,13.0234654,101.0701059
588,บริษัท โฮมโปรดักส์เซ็นเตอร์ จำกัด(มหาชน) สาขาชัยภูมิ,164 หมู่ที่ 7 ต.หนองนาแซง อ.เมืองชัยภูมิ จ.ชัยภูมิ 36000,,มี,15.7557833,102.0241614
589,บริษัท โฮมโปรดักส์เซ็นเตอร์ จำกัด(มหาชน) สาขาชุมพร,63 หมู่ 11  ต.วังไผ่ อ.เมืองชุมพร จ.ชุมพร 86000,,มี,10.5018286,99.1450307
590,บริษัท โฮมโปรดักส์เซ็นเตอร์ จำกัด(มหาชน) สาขาเชียงราย,157 หมู่ที่ 2  ต.ท่าสาย อ.เมืองเชียงราย จ.เชียงราย 57000,,มี,19.86404,99.8382878
591,บริษัท เมกา โฮม เซ็นเตอร์ จำกัด สาขาเชียงราย,515 หมู่ที่ 9 ต.บ้านดู่ อ.เมืองเชียงราย จ.เชียงราย 57100,052-024-141,มี,19.9786602,99.8598879
592,บริษัท โฮมโปรดักส์เซ็นเตอร์ จำกัด(มหาชน) สาขาเชียงใหม่,94 หมู่4 ถ.เชียงใหม่-ลำปาง ต.หนองป่าครั่ง อ.เมืองเชียงใหม่ จ.เชียงใหม่ 50000,(053)851-515,มี,18.8339386,99.0364631
593,บริษัท โฮมโปรดักส์เซ็นเตอร์ จำกัด(มหาชน) สาขาหางดง,433/4-5 หมู่ 7 ต.แม่เหียะ อ.เมืองเชียงใหม่ จ.เชียงใหม่ 50100,,มี,18.741693,98.9622044
594,บริษัท โฮมโปรดักส์เซ็นเตอร์ จำกัด(มหาชน) สาขาเชียงใหม่ (สันทราย),49 หมู่ที่ 4  ต.สันทรายน้อย อ.สันทราย จ.เชียงใหม่ 50210,,มี,18.8339386,99.0364631
595,บริษัท โฮมโปรดักส์เซ็นเตอร์ จำกัด(มหาชน) สาขาตรัง,196 หมู่ 4  ต.บ้านควน อ.เมืองตรัง จ.ตรัง 92000,,มี,7.5329209,99.6218876
596,บริษัท เมกา โฮม เซ็นเตอร์ จำกัด สาขาแม่สอด,1108 หมู่ที่ 1  ต.ท่าสายลวด อ.แม่สอด จ.ตาก 63110,,มี,16.7058529,98.5456741
597,บริษัท โฮมโปรดักส์เซ็นเตอร์ จำกัด(มหาชน) สาขานครปฐม,752/3 ถ.เพชรเกษม ต.ห้วยจรเข้ อ.เมืองนครปฐม จ.นครปฐม 73000,,มี,13.9050916,100.5164845
598,บริษัท โฮมโปรดักส์เซ็นเตอร์ จำกัด(มหาชน) สาขาพุทธมณฑล สาย5,198 หมู่ที่ 1  ต.บางเตย อ.สามพราน จ.นครปฐม 73210,054-532-222,มี,13.7865022,100.2901642
599,บริษัท เมกา โฮม เซ็นเตอร์ จำกัด สาขานครพนม,333/7 ถ.นิตโย ต.หนองญาติ อ.เมืองนครพนม จ.นครพนม 48000,042-064-111,มี,17.3960781,104.7811342
600,บริษัท โฮมโปรดักส์เซ็นเตอร์ จำกัด(มหาชน) สาขาเดอะมอลล์ นครราชสีมา,1242/2 ถ.มิตรภาพ ต.ในเมือง อ.เมืองนครราชสีมา จ.นครราชสีมา 30000,(044)288-345,ไม่มี,14.9792077,102.0765428
601,บริษัท โฮมโปรดักส์เซ็นเตอร์ จำกัด(มหาชน) สาขาเขาใหญ่,288 หมู่ 11 ต.หนองน้ำแดง อ.ปากช่อง จ.นครราชสีมา 30130,,มี,14.6606301,101.394533
602,บริษัท โฮมโปรดักส์เซ็นเตอร์ จำกัด(มหาชน) สาขานครราชสีมา,384 ซ.มิตรภาพ 8 ต.ในเมือง อ.เมืองนครราชสีมา จ.นครราชสีมา 30000,,มี,15.7380319,100.1197233
603,บริษัท โฮมโปรดักส์เซ็นเตอร์ จำกัด(มหาชน) สาขานครราชสีมา(หัวทะเล),233 หมู่ที่ 1  ต.หนองบัวศาลา อ.เมืองนครราชสีมา จ.นครราชสีมา 30000,,มี,14.9485504,102.1229254
604,บริษัท เมกา โฮม เซ็นเตอร์ จำกัด สาขานครราชสีมา,668 หมู่ที่ 8 ต.หมื่นไวย อ.เมืองนครราชสีมา จ.นครราชสีมา 30000,044-003-500,มี,14.9964635,102.1074116
605,บริษัท โฮมโปรดักส์เซ็นเตอร์ จำกัด(มหาชน) สาขานครศรีธรรมราช,89 ถ.นคร-ปากพนัง ต.ในเมือง อ.เมืองนครศรีธรรมราช จ.นครศรีธรรมราช 80000,,มี,8.3851389,99.9797295
606,บริษัท โฮมโปรดักส์เซ็นเตอร์ จำกัด(มหาชน) สาขานครสวรรค์,119/2 หมู่ 7  ต.บางม่วง อ.เมืองนครสวรรค์ จ.นครสวรรค์ 60000,,มี,15.7376015,100.117954
607,บริษัท โฮมโปรดักส์เซ็นเตอร์ จำกัด(มหาชน) สาขารัตนาธิเบศร์,6/1 หมู่ 6 ถ.ตลิ่งชัน- สุพรรณบุรี ต.เสาธงหิน อ.บางใหญ่ จ.นนทบุรี 11140,,มี,13.87979,100.4084433
608,บริษัท โฮมโปรดักส์เซ็นเตอร์ จำกัด(มหาชน),31 ถ.ประชาชื่นนนทบุรี ต.บางเขน อ.เมืองนนทบุรี จ.นนทบุรี 11000,,มี,13.8537167,100.5444291
609,บริษัท โฮมโปรดักส์เซ็นเตอร์ จำกัด(มหาชน) สาขาแจ้งวัฒนะ,113 ม.5 ต.ปากเกร็ด อ.ปากเกร็ด จ.นนทบุรี 11120,,มี,13.9048375,100.5163367
610,บริษัท โฮมโปรดักส์เซ็นเตอร์ จำกัด(มหาชน) สาขาราชพฤกษ์,82 ม.2 ต.บางขุนกอง อ.บางกรวย จ.นนทบุรี 11130,,มี,13.820005,100.4488742
611,บริษัท โฮมโปรดักส์ เซ็นเตอร์ จำกัด(มหาชน) สาขาชัยพฤกษ์,54/8 หมู่ที่ 2 ต.บางพลับ อ.ปากเกร็ด จ.นนทบุรี 11120,"02-832-1000, 02-029-7230",มี,13.8194063,100.4489419
612,บริษัท โฮมโปรดักส์เซ็นเตอร์ จำกัด(มหาชน) สาขาบุรีรัมย์,499 หมู่ 9  ต.อิสาณ อ.เมืองบุรีรัมย์ จ.บุรีรัมย์ 31000,,มี,14.9840704,103.0803087
613,บริษัท โฮมโปรดักส์เซ็นเตอร์ จำกัด(มหาชน) สาขารังสิต,100 ถ.พหลโยธิน ต.ประชาธิปัตย์ อ.ธัญบุรี จ.ปทุมธานี 12130,"958-5678, 958-5699",มี,13.9921911,100.6150737
614,บริษัท โฮมโปรดักส์เซ็นเตอร์ จำกัด(มหาชน) สาขาลำลูกกา,99 หมู่ 6 ต.บึงคำพร้อย อ.ลำลูกกา จ.ปทุมธานี 12150,0-2831-6000,มี,13.9340852,100.7191373
615,บริษัท โฮมโปรดักส์เซ็นเตอร์ จำกัด(มหาชน) สาขารังสิต คลอง4,98 หมู่ที่ 2 ต.บึงยี่โถ อ.ธัญบุรี จ.ปทุมธานี 12130,02-832-1000,ไม่มี,,
616,บริษัท เมกา โฮม เซ็นเตอร์ จำกัด,49  หมู่ 5 ต.คลองหนึ่ง อ.คลองหลวง จ.ปทุมธานี 12120,02-516-0088,มี,14.0432442,100.6167071
617,บริษัท โฮมโปรดักส์เซ็นเตอร์ จำกัด(มหาชน) สาขาหัวหิน,234/1 ถ.เพชรเกษม ต.หัวหิน อ.หัวหิน จ.ประจวบคีรีขันธ์ 77110,028-321-462,มี,12.5581504,99.960855
618,บริษัท โฮมโปรดักส์เซ็นเตอร์ จำกัด(มหาชน) สาขาประจวบคีรีขันธ์,57 ถ.เพชรเกษม  ต.ประจวบคีรีขันธ์ อ.เมืองประจวบคีรีขันธ์ จ.ประจวบคีรีขันธ์ 77000,,มี,11.791878,99.7736263
619,บริษัท โฮมโปรดักส์เซ็นเตอร์ จำกัด(มหาชน) สาขาปราจีนบุรี,44/1 หมู่ที่ 4  ต.บางบริบูรณ์ อ.เมืองปราจีนบุรี จ.ปราจีนบุรี 25000,"02-832-1000, 037-482-222",มี,14.0567004,101.3883814
620,บริษัท เมกา โฮม เซ็นเตอร์ จำกัด สาขากบินทร์บุรี,61 หมู่ที่ 8 ต.เมืองเก่า อ.กบินทร์บุรี จ.ปราจีนบุรี 25240,037-480-222,มี,13.9799999,101.7561726
621,บริษัท โฮมโปรดักส์เซ็นเตอร์ จำกัด(มหาชน) สาขาวังน้อย,100 ม.2 ต.ลำไทร อ.วังน้อย จ.พระนครศรีอยุธยา 13170,,ไม่มี,,
622,บริษัท โฮมโปรดักส์เซ็นเตอร์ จำกัด(มหาชน) สาขาอยุธยา,80 หมู่ 2 ต.บ้านกรด อ.บางปะอิน จ.พระนครศรีอยุธยา 13160,,มี,14.3191186,100.6126097
623,บริษัท เมกา โฮม เซ็นเตอร์ จำกัด สาขาโรจนะ,522 หมู่ที่ 2 ต.สามเรือน อ.บางปะอิน จ.พระนครศรีอยุธยา 13160,035-958-000,มี,14.3069656,100.647097
624,บริษัท โฮมโปรดักส์เซ็นเตอร์ จำกัด(มหาชน) สาขาพัทลุง,219 หมู่ที่ 1 ต.เขาเจียก อ.เมืองพัทลุง จ.พัทลุง 93000,02-832-1000,มี,7.6171666,100.0506894
625,บริษัท โฮมโปรดักส์เซ็นเตอร์ จำกัด(มหาชน) สาขาพิษณุโลก,959 หมู่ 10 ต.อรัญญิก อ.เมืองพิษณุโลก จ.พิษณุโลก 65000,,มี,16.8178164,100.2979519
626,บริษัท โฮมโปรดักส์เซ็นเตอร์ จำกัด(มหาชน) สาขาเพชรบุรี,526 หมู่ที่ 6 ต.บ้านหม้อ อ.เมืองเพชรบุรี จ.เพชรบุรี 76000,032-474-599,มี,12.5575359,99.9609586
627,บริษัท โฮมโปรดักส์เซ็นเตอร์ จำกัด(มหาชน) สาขาเพชรบูรณ์,151 หมู่ที่ 1  ต.ชอนไพร อ.เมืองเพชรบูรณ์ จ.เพชรบูรณ์ 67000,,มี,16.3854081,101.1249334
628,บริษัท โฮมโปรดักส์เซ็นเตอร์ จำกัด(มหาชน) สาขาแพร่,171 หมู่ที่ 7  ต.ป่าแมต อ.เมืองแพร่ จ.แพร่ 54000,034-602-700,มี,18.1190898,100.139945
629,บริษัท โฮมโปรดักส์เซ็นเตอร์ จำกัด(มหาชน) สาขาภูเก็ต,104 หมู่ 5 ต.รัษฎา อ.เมืองภูเก็ต จ.ภูเก็ต 83000,(076)255-189,มี,7.9029519,98.367915
630,บริษัท โฮมโปรดักส์เซ็นเตอร์ จำกัด(มหาชน) สาขาภูเก็ต (ฉลอง),61/10 หมู่ 10 ต.ฉลอง อ.เมืองภูเก็ต จ.ภูเก็ต 83130,,มี,8.0153219,98.3387004
631,บริษัท โฮมโปรดักส์เซ็นเตอร์ จำกัด(มหาชน) สาขาภูเก็ต(ถลาง),18 หมู่ที่ 1 ต.ศรีสุนทร อ.ถลาง จ.ภูเก็ต 83110,,มี,8.0152343,98.3387352
632,บริษัท โฮมโปรดักส์เซ็นเตอร์ จำกัด(มหาชน) สาขามุกดาหาร,45/9 ถ.ชยางกูร ข ต.มุกดาหาร อ.เมืองมุกดาหาร จ.มุกดาหาร 49000,,มี,,
633,บริษัท โฮมโปรดักส์เซ็นเตอร์ จำกัด(มหาชน) สาขาร้อยเอ็ด,116 หมู่ 3  ต.ดงลาน อ.เมืองร้อยเอ็ด จ.ร้อยเอ็ด 45000,,มี,16.0614777,103.6192681
634,บริษัท โฮมโปรดักส์เซ็นเตอร์ จำกัด(มหาชน) สาขาระยอง,560 ถ.สุขุมวิท ต.เนินพระ อ.เมืองระยอง จ.ระยอง 21000,,มี,12.6832857,101.2444627
635,บริษัท โฮมโปรดักส์เซ็นเตอร์ จำกัด(มหาชน) สาขาเมกาโฮม-บ้านฉาง,76/1 หมู่ที่ 1 ต.พลา อ.บ้านฉาง จ.ระยอง 21130,,มี,,
636,บริษัท โฮมโปรดักส์เซ็นเตอร์ จำกัด(มหาชน) สาขาราชบุรี,208 หมู่ 13  ต.เจดีย์หัก อ.เมืองราชบุรี จ.ราชบุรี 70000,,มี,13.5378284,99.7985951
637,บริษัท โฮมโปรดักส์เซ็นเตอร์ จำกัด(มหาชน) สาขาลพบุรี,85 หมู่ 6  ต.ท่าศาลา อ.เมืองลพบุรี จ.ลพบุรี 15000,02-832-1000,มี,14.7839629,100.683495
638,บริษัท โฮมโปรดักส์เซ็นเตอร์ จำกัด(มหาชน) สาขาลำปาง,224 ถ.ไฮเวย์-ลำปาง-งาว ต.พระบาท อ.เมืองลำปาง จ.ลำปาง 52000,,มี,18.2809902,99.493723
639,บริษัท โฮมโปรดักส์เซ็นเตอร์ จำกัด(มหาชน) สาขาเลย,117 หมู่ที่ 9  ต.นาอาน อ.เมืองเลย จ.เลย 42000,,มี,17.4710661,101.7247815
640,บริษัท โฮมโปรดักส์เซ็นเตอร์ จำกัด(มหาชน) สาขาสกลนคร,689/1 ถ.นิตโย ต.ธาตุเชิงชุม อ.เมืองสกลนคร จ.สกลนคร 47000,,มี,17.1711263,104.1373658
641,บริษัท โฮมโปรดักส์เซ็นเตอร์ จำกัด(มหาชน) สาขาหาดใหญ่,677 ถ.เพชรเกษม ต.หาดใหญ่ อ.หาดใหญ่ จ.สงขลา 90110,,มี,6.9828659,100.4815464
642,บริษัท โฮมโปรดักส์เซ็นเตอร์ จำกัด(มหาชน) สาขาหาดใหญ่(กาญจนวนิช),33/40 หมู่ 5  ต.คอหงส์ อ.หาดใหญ่ จ.สงขลา 90110,,มี,6.9828659,100.4815464
643,บริษัท เมกา โฮม เซ็นเตอร์ จำกัด สาขาหาดใหญ่,89 หมู่ที่ 1 ถ.เลี่ยงเมือง(สายเอเซีย) ต.ควนลัง อ.หาดใหญ่ จ.สงขลา 90110,,มี,6.9811882,100.4592711
644,บริษัท โฮมโปรดักส์เซ็นเตอร์ จำกัด(มหาชน) สาขาสุวรรณภูมิ,99/28 หมู่ที่ 1 ต.ราชาเทวะ อ.บางพลี จ.สมุทรปราการ 10540,02-325-1200,มี,13.6332993,100.7113307
645,บริษัท โฮมโปรดักส์เซ็นเตอร์ จำกัด(มหาชน) สาขาเมกาบางนา,39 หมู่ 6  ต.บางแก้ว อ.บางพลี จ.สมุทรปราการ 10540,,มี,13.643551,100.6812937
646,บริษัท โฮมโปรดักส์ เซ็นเตอร์ จำกัด(มหาชน) สาขาศรีนครินทร์,888/8 หมู่ที่ 5 ต.บางเมือง อ.เมืองสมุทรปราการ จ.สมุทรปราการ 10270,02-029-7630,มี,13.6867204,100.6468795
647,บริษัท โฮมโปรดักส์เซ็นเตอร์ จำกัด(มหาชน) สาขาเมกาโฮม-บางนาตราด,230 หมู่ที่ 4 ต.บางบ่อ อ.บางบ่อ จ.สมุทรปราการ 10560,,มี,,
648,บริษัท โฮมโปรดักส์เซ็นเตอร์ จำกัด(มหาชน) สาขาสุขสวัสดิ์,226 หมู่ที่ 18 ต.บางพึ่ง อ.พระประแดง จ.สมุทรปราการ 10130,02-832-1000,ไม่มี,,
649,บริษัท โฮมโปรดักส์เซ็นเตอร์ จำกัด(มหาชน) สาขาสมุทรสงคราม,2/25 หมู่ที่ 1 ต.บางแก้ว อ.เมืองสมุทรสงคราม จ.สมุทรสงคราม 75000,02-832-1000,มี,13.4116037,100.0234966
650,บริษัท โฮมโปรดักส์เซ็นเตอร์ จำกัด(มหาชน) สาขามหาชัย,68/98 หมู่ 8  ต.ท่าทราย อ.เมืองสมุทรสาคร จ.สมุทรสาคร 74000,02-832-1000,มี,13.5657182,100.2807621
651,บริษัท เมกา โฮม เซ็นเตอร์ จำกัด สาขาอรัญประเทศ,52 หมู่ที่ 7 ต.บ้านใหม่หนองไทร อ.อรัญประเทศ จ.สระแก้ว 27120,037-640-111,มี,13.7104482,102.5097646
652,บริษัท โฮมโปรดักส์เซ็นเตอร์ จำกัด(มหาชน) สาขาสระบุรี,24/3 หมู่ที่ 2  ต.ตะกุด อ.เมืองสระบุรี จ.สระบุรี 18000,,มี,14.5350573,100.9470496
653,บริษัท โฮมโปรดักส์เซ็นเตอร์ จำกัด(มหาชน) สาขาสุโขทัย,33 หมู่ที่ 12 ต.บ้านกล้วย อ.เมืองสุโขทัย จ.สุโขทัย 64000,02-832-1215,มี,17.011672,99.8031983
654,บริษัท โฮมโปรดักส์เซ็นเตอร์ จำกัด(มหาชน) สาขาสุพรรณบุรี,133 ถ.มาลัยแมน ต.รั้วใหญ่ อ.เมืองสุพรรณบุรี จ.สุพรรณบุรี 72000,035-525023,มี,14.47506,100.1055604
655,บริษัท โฮมโปรดักส์เซ็นเตอร์ จำกัด(มหาชน) สาขาสมุย,1/7 หมู่ 6 ต.บ่อผุด อ.เกาะสมุย จ.สุราษฎร์ธานี 84320,,มี,9.5339638,100.0424062
656,บริษัท โฮมโปรดักส์เซ็นเตอร์ จำกัด(มหาชน) สาขาสุราษฎร์ธานี,9/1 หมู่ 3 ถ.เลี่ยงเมือง ต.มะขามเตี้ย อ.เมืองสุราษฎร์ธานี จ.สุราษฎร์ธานี 84000,,มี,9.1165888,99.2992521
657,บริษัท โฮมโปรดักส์เซ็นเตอร์ จำกัด(มหาชน)สาขาสุราษฎร์ธานี(เลี่ยงเมือง),86 หมู่ที่ 3  ต.วัดประดู่ อ.เมืองสุราษฎร์ธานี จ.สุราษฎร์ธานี 84000,,ไม่มี,9.118024,99.2974313
658,บริษัท โฮมโปรดักส์เซ็นเตอร์ จำกัด(มหาชน) สาขาสุรินทร์,188 หมู่ที่ 6  ต.นอกเมือง อ.เมืองสุรินทร์ จ.สุรินทร์ 32000,,มี,14.8776789,103.5200123
659,บริษัท เมกา โฮม เซ็นเตอร์ จำกัด สาขาหนองคาย,999 หมู่ที่ 5  ต.มีชัย อ.เมืองหนองคาย จ.หนองคาย 43000,,มี,17.8749894,102.7389917
660,บริษัท โฮมโปรดักส์เซ็นเตอร์ จำกัด(มหาชน) สาขาอุดรธานี,89/20 หมู่ที่ 9 ซ.บ้านหนองเหล็ก ต.หมากแข้ง อ.เมืองอุดรธานี จ.อุดรธานี 41000,,มี,17.4200843,102.8137743
661,บริษัท โฮมโปรดักส์เซ็นเตอร์ จำกัด(มหาชน) สาขาอุบลราชธานี,284 หมู่ 7 ต.แจระแม อ.เมืองอุบลราชธานี จ.อุบลราชธานี 34000,,มี,15.243717,104.8230595
662,บริษัท แกรนด์โฮมมาร์ท จำกัด,82/90 หมู่ที่ 6 ถ.งามวงศ์วาน แขวงทุ่งสองห้อง เขตหลักสี่ กรุงเทพมหานคร 10210,02-954-1090,ไม่มี,13.8562613,100.5455537
663,บริษัท แกรนด์โฮมมาร์ท จำกัด,8/1 หมู่ที่ 1 ต.แก่งเสี้ยน อ.เมืองกาญจนบุรี จ.กาญจนบุรี 71000,,ไม่มี,,
664,บริษัท สยามโกลบอลเฮ้าส์ จำกัด (มหาชน) สาขากาญจนบุรี,116 หมู่ที่ 8 ต.แก่งเสี้ยน อ.เมืองกาญจนบุรี จ.กาญจนบุรี 71000,,มี,14.0654798,99.4958682
665,บริษัท สยามโกลบอลเฮ้าส์ จำกัด(มหาชน) สาขากาฬสินธุ์,193 หมู่ 10 ต.ลำพาน อ.เมืองกาฬสินธุ์ จ.กาฬสินธุ์ 46000,043-600000,มี,16.4137174,103.4712887
666,บริษัท ไทยเพิ่มพูลโฮมช็อป รีเทล จำกัด,663 หมู่ที่ 13 ต.บัวขาว อ.กุฉินารายณ์ จ.กาฬสินธุ์ 46110,043-012-020,มี,,
667,บริษัท สยามโกลบอลเฮ้าส์ จำกัด(มหาชน) สาขากำแพงเพชร,11 หมู่ที่ 10  ต.นครชุม อ.เมืองกำแพงเพชร จ.กำแพงเพชร 62000,,มี,16.4899861,99.4835715
668,บริษัท สยามโกลบอลเฮ้าส์ จำกัด(มหาชน) สาขาขอนแก่น,377 หมู่ 21 ถ.มะลิวัลย์ ต.บ้านเป็ด อ.เมืองขอนแก่น จ.ขอนแก่น 40000,043-345500,มี,16.4463699,102.7818716
669,บริษัท สยามโกลบอลเฮ้าส์ จำกัด(มหาชน) สาขาบ้านไผ่,77 หมู่ที่ 6  ต.หัวหนอง อ.บ้านไผ่ จ.ขอนแก่น 40110,,มี,16.050308,102.7150044
670,บริษัท สยามโกลบอลเฮ้าส์ จำกัด(มหาชน) สาขาชุมแพ,998 หมู่ที่ 9 ต.ชุมแพ อ.ชุมแพ จ.ขอนแก่น 40130,,มี,16.5272078,102.1388655
671,บริษัท สยามโกลบอลเฮ้าส์ จำกัด(มหาชน) สาขาจันทบุรี,83 หมู่ที่ 6  ต.เขาวัว อ.ท่าใหม่ จ.จันทบุรี 22120,,มี,12.6609762,102.068959
672,บริษัท แกรนด์โฮมมาร์ท จำกัด,73 หมู่ที่ 5 ต.เมืองใหม่ อ.ราชสาส์น จ.ฉะเชิงเทรา 24120,,ไม่มี,,
673,บริษัท แกรนด์โฮมมาร์ท จำกัด,297/2 หมู่ที่ 1 ต.บางละมุง อ.บางละมุง จ.ชลบุรี 20150,02-954-1090,มี,,
674,บริษัท แกรนด์โฮมมาร์ท จำกัด,43/5 หมู่ที่ 8 ต.สัตหีบ อ.สัตหีบ จ.ชลบุรี 20180,,ไม่มี,,
675,บริษัท สยามโกลบอลเฮ้าส์ จำกัด(มหาชน) สาขาชลบุรี,25/74 หมู่ 3 ต.บ้านสวน อ.เมืองชลบุรี จ.ชลบุรี 20000,038-192123,มี,13.3316723,100.9818545
676,บริษัท สยามโกลบอลเฮ้าส์ จำกัด(มหาชน) สาขาชัยนาท,798 หมู่ที่ 5 ต.บ้านกล้วย อ.เมืองชัยนาท จ.ชัยนาท 17000,093-320-8154,ไม่มี,,
677,บริษัท สยามโกลบอลเฮ้าส์ จำกัด(มหาชน) สาขาชัยภูมิ,8 หมู่ 11  ต.หนองนาแซง อ.เมืองชัยภูมิ จ.ชัยภูมิ 36000,044-822100,มี,15.7636195,102.024927
678,บริษัท สยามโกลบอลเฮ้าส์ จำกัด(มหาชน) สาขาเชียงราย,296 หมู่ที่ 1 ต.ท่าสาย อ.เมืองเชียงราย จ.เชียงราย 57000,,มี,19.8690025,99.8350226
679,บริษัท สยามโกลบอลเฮ้าส์ จำกัด(มหาชน) สาขาแม่สาย,357 หมู่ที่ 11 ต.โป่งผา อ.แม่สาย จ.เชียงราย 57130,,มี,,
680,บริษัท แกรนด์โฮมมาร์ท จำกัด,"34,34/1 หมู่ที่ 6 ต.แม่สา อ.แม่ริม จ.เชียงใหม่ 50180",02-954-1090,ไม่มี,,
681,บริษัท สยามโกลบอลเฮ้าส์ จำกัด(มหาชน) สาขาเวียงกุมกาม,99/3 หมู่ 11 ต.ท่าวังตาล อ.สารภี จ.เชียงใหม่ 50140,053-124555-67,มี,18.7425634,99.0000239
682,บริษัท สยามโกลบอลเฮ้าส์ จำกัด(มหาชน) สาขาฝาง,222 หมู่ที่ 2 ต.สันทราย อ.ฝาง จ.เชียงใหม่ 50110,043-519-777 ต่อ 420,มี,,
683,บริษัท สยามโกลบอลเฮ้าส์ จำกัด(มหาชน) สาขาตราด,62/26 หมู่ที่ 5 ต.วังกระแจะ อ.เมืองตราด จ.ตราด 23000,,มี,12.2809901,102.4881161
684,บริษัท สยามโกลบอลเฮ้าส์ จำกัด(มหาชน) สาขานครนายก,86/40 หมู่ที่ 10 ต.พรหมณี อ.เมืองนครนายก จ.นครนายก 26000,,มี,14.2198443,101.1902234
685,บริษัท สยามโกลบอลเฮ้าส์ จำกัด(มหาชน) สาขานครปฐม,222 หมู่ 8 ต.ลำพยา อ.เมืองนครปฐม จ.นครปฐม 73000,034-270166-70,มี,13.8013236,100.0044971
686,บริษัท สยามโกลบอลเฮ้าส์ จำกัด(มหาชน) สาขาศาลายา,8/8 หมู่ที่ 1 ต.ทรงคนอง อ.สามพราน จ.นครปฐม 73210,,มี,13.7852479,100.2642524
687,บริษัท สยามโกลบอลเฮ้าส์ จำกัด(มหาชน) สาขานครพนม,147/3 ถ.ประชาร่วมมิตร ต.หนองญาติ อ.เมืองนครพนม จ.นครพนม 48000,,มี,17.3761979,104.7861592
688,บริษัท แกรนด์โฮมมาร์ท จำกัด,567 หมู่ที่ 2 ต.มิตรภาพ อ.สีคิ้ว จ.นครราชสีมา 30140,,ไม่มี,,
689,บริษัท สยามโกลบอลเฮ้าส์ จำกัด(มหาชน) สาขานครราชสีมา,493 หมู่ 2  ต.บ้านเกาะ อ.เมืองนครราชสีมา จ.นครราชสีมา 30000,,มี,15.0082277,102.1243587
690,บริษัท สยามโกลบอลเฮ้าส์ จำกัด(มหาชน) สาขาโชคชัย,363 หมู่ที่ 12 ต.โชคชัย อ.โชคชัย จ.นครราชสีมา 30190,,ไม่มี,14.761451,102.16209
691,บริษัท สยามโกลบอลเฮ้าส์ จำกัด(มหาชน) สาขาด่านขุนทด,408 หมู่ที่ 4 ต.ด่านขุนทด อ.ด่านขุนทด จ.นครราชสีมา 30210,,ไม่มี,,
692,บริษัท สยามโกลบอลเฮ้าส์ จำกัด (มหาชน) สาขานครศรีธรรมราช,100/1 หมู่ที่ 5 ต.ปากพูน อ.เมืองนครศรีธรรมราช จ.นครศรีธรรมราช 80000,,มี,8.4669623,99.9641597
693,บริษัท สยามโกลบอลเฮ้าส์ จำกัด (มหาชน) สาขานครสวรรค์,99/6 หมู่ 10 ต.หนองกรด อ.เมืองนครสวรรค์ จ.นครสวรรค์ 60240,056-245567,มี,15.7124326,100.0566189
694,บริษัท แกรนด์โฮมมาร์ท จำกัด,35/1-35/2 หมู่ที่ 8 ต.บางกระสอ อ.เมืองนนทบุรี จ.นนทบุรี 11000,02-527-2979,ไม่มี,13.8672199,100.4920958
695,บริษัท แกรนด์โฮมมาร์ท จำกัด,38/38-41 หมู่ที่ 6 ต.ละหาร อ.บางบัวทอง จ.นนทบุรี 11110,02-969-8844,ไม่มี,,
696,บริษัท สยามโกลบอลเฮ้าส์ จำกัด(มหาชน) สาขาไทรน้อย,88 หมู่ที่ 4 ต.ไทรน้อย อ.ไทรน้อย จ.นนทบุรี 11150,043-519-777,ไม่มี,,
697,บริษัท สยามโกลบอลเฮ้าส์ จำกัด(มหาชน) สาขาน่าน,288 หมู่ที่ 11 ต.ไชยสถาน อ.เมืองน่าน จ.น่าน 55000,054-716-241-3,มี,18.7925368,100.7340729
698,บริษัท สยามโกลบอลเฮ้าส์ จำกัด(มหาชน) สาขาบึงกาฬ,328 หมู่ที่ 10 ต.บึงกาฬ อ.เมืองบึงกาฬ จ.บึงกาฬ 38000,,มี,18.3445131,103.6396485
699,บริษัท สยามโกลบอลเฮ้าส์ จำกัด(มหาชน) สาขาบุรีรัมย์,54 หมู่ที่ 16 ต.กระสัง อ.เมืองบุรีรัมย์ จ.บุรีรัมย์ 31000,,มี,14.9615812,103.0498135
700,บริษัท สยามโกลบอลเฮ้าส์ จำกัด(มหาชน) สาขานางรอง,1/89 ถ.โชคชัย-เดชอุดม ต.ถนนหัก อ.นางรอง จ.บุรีรัมย์ 31110,,มี,,
701,บริษัท ไทยเพิ่มพูลโฮมช็อป จำกัด,129 หมู่ที่ 6 ต.ถนนหัก อ.นางรอง จ.บุรีรัมย์ 31110,,มี,,
702,บริษัท สยามโกลบอลเฮ้าส์ จำกัด (มหาชน) สาขาปทุมธานี 1,1/88 หมู่ที่ 3 ต.บางโพธิ์เหนือ อ.สามโคก จ.ปทุมธานี 12160,,มี,14.0358274,100.5252101
703,บริษัท สยามโกลบอลเฮ้าส์ จำกัด(มหาชน) สาขาปราณบุรี,1441 หมู่ที่ 2 ต.วังก์พง อ.ปราณบุรี จ.ประจวบคีรีขันธ์ 77120,,มี,12.4016485,99.9231998
704,บริษัท สยามโกลบอลเฮ้าส์ จำกัด(มหาชน) สาขาประจวบคีรีขันธ์,1/2 ถ.เพชรเกษม ต.ประจวบคีรีขันธ์ อ.เมืองประจวบคีรีขันธ์ จ.ประจวบคีรีขันธ์ 77000,,ไม่มี,11.8220082,99.7808208
705,บริษัท สยามโกลบอลเฮ้าส์ จำกัด (มหาชน) สาขาพระนครศรีอยุธยา,50/3 หมู่ที่ 5 ต.บ้านกรด อ.บางปะอิน จ.พระนครศรีอยุธยา 13160,,มี,14.5787541,100.4618081
706,บริษัท สยามโกลบอลเฮ้าส์ จำกัด(มหาชน) สาขาวังน้อย,777/7 หมู่ที่ 5 ต.พยอม อ.วังน้อย จ.พระนครศรีอยุธยา 13180,,ไม่มี,14.1779696,100.6226812
707,บริษัท สยามโกลบอลเฮ้าส์ จำกัด(มหาชน) สาขาพะเยา,339 หมู่ที่ 13  ต.บ้านต๋อม อ.เมืองพะเยา จ.พะเยา 56000,043-519-777,ไม่มี,,
708,บริษัท สยามโกลบอลเฮ้าส์ จำกัด(มหาชน) สาขาพัทลุง,228 หมู่ที่ 10 ต.เขาเจียก อ.เมืองพัทลุง จ.พัทลุง 93000,,ไม่มี,7.63208,100.0645653
709,บริษัท สยามโกลบอลเฮ้าส์ จำกัด(มหาชน) สาขาพิษณุโลก,9/9 หมู่ 7  ต.วัดจันทร์ อ.เมืองพิษณุโลก จ.พิษณุโลก 65000,,มี,16.8105211,100.2285587
710,บริษัท สยามโกลบอลเฮ้าส์ จำกัด(มหาชน) สาขาเพชรบูรณ์,333 หมู่ที่ 12 ต.นางั่ว อ.เมืองเพชรบูรณ์ จ.เพชรบูรณ์ 67000,,มี,16.4734875,101.1588538
711,บริษัท สยามโกลบอลเฮ้าส์ จำกัด(มหาชน) สาขาแพร่,158 หมู่ที่ 2  ต.ร่องกาศ อ.สูงเม่น จ.แพร่ 54130,,มี,18.1083648,100.1363889
712,บริษัท สยามโกลบอลเฮ้าส์ จำกัด(มหาชน) สาขาภูเก็ต,66/49 หมู่ที่ 10 ต.ฉลอง อ.เมืองภูเก็ต จ.ภูเก็ต 83130,,มี,,
713,บริษัท สยามโกลบอลเฮ้าส์ จำกัด(มหาชน) สาขามหาสารคาม,28 ถ.สารคาม-วาปีปทุม ต.ตลาด อ.เมืองมหาสารคาม จ.มหาสารคาม 44000,043-713006,มี,16.1689816,103.3096744
714,บริษัท ไทยเพิ่มพูลโฮมช็อป เซ็นเตอร์ จำกัด,440 หมู่ที่ 16 ต.ปะหลาน อ.พยัคฆภูมิพิสัย จ.มหาสารคาม 44110,043-021-010,มี,,
715,บริษัท ไทยเพิ่มพูลโฮมช็อป รีเทล จำกัด,219 หมู่ที่ 11 ต.เขวา อ.เมืองมหาสารคาม จ.มหาสารคาม 44000,,มี,,
716,บริษัท สยามโกลบอลเฮ้าส์ จำกัด(มหาชน) สาขามุกดาหาร,35/8 ถ.ชยางกูร ก ต.มุกดาหาร อ.เมืองมุกดาหาร จ.มุกดาหาร 49000,042-266-0810-13,มี,16.5358052,104.7018342
717,บริษัท สยามโกลบอลเฮ้าส์ จำกัด(มหาชน) สาขาแม่ฮองสอน,61 หมู่ที่ 11 ต.ปางหมู อ.เมืองแม่ฮ่องสอน จ.แม่ฮ่องสอน 58000,093-320-8154,มี,,
718,บริษัท สยามโกลบอลเฮ้าส์ จำกัด(มหาชน) สาขายโสธร,364 หมู่ที่ 3 ต.ตาดทอง อ.เมืองยโสธร จ.ยโสธร 35000,,มี,15.7885098,104.1724212
719,บริษัท สยามโกลบอลเฮ้าส์ จำกัด(มหาชน),232 หมู่ที่ 19 ต.รอบเมือง อ.เมืองร้อยเอ็ด จ.ร้อยเอ็ด 45000,043-519777ต่อ650,มี,16.0360033,103.6508516
720,บริษัท ไทยเพิ่มพูลโฮมช็อป จำกัด,208 หมู่ที่ 23 ต.เหนือเมือง อ.เมืองร้อยเอ็ด จ.ร้อยเอ็ด 45000,,มี,,
721,บริษัท ไทยเพิ่มพูลโฮมช็อป เซ็นเตอร์ จำกัด,103 หมู่ที่ 20 ต.สระคู อ.สุวรรณภูมิ จ.ร้อยเอ็ด 45130,043-032-139,มี,,
722,บริษัท สยามโกลบอลเฮ้าส์ จำกัด(มหาชน) สาขาระยอง,137 หมู่ 4 ต.ทับมา อ.เมืองระยอง จ.ระยอง 21000,038-928222,มี,12.7076409,101.2362462
723,บริษัท สยามโกลบอลเฮ้าส์ จำกัด(มหาชน) สาขาราชบุรี,280 หมู่ 2 ต.เจดีย์หัก อ.เมืองราชบุรี จ.ราชบุรี 70000,032-322393,มี,13.5474008,99.8067782
724,บริษัท สยามโกลบอลเฮ้าส์ จำกัด(มหาชน) สาขาลพบุรี,41/3 หมู่ที่ 1  ต.นิคมสร้างตนเอง อ.เมืองลพบุรี จ.ลพบุรี 15000,,มี,14.7637179,100.7170524
725,บริษัท สยามโกลบอลเฮ้าส์ จำกัด (มหาชน) สาขาลำปาง,518 หมู่ที่ 11 ต.ปงแสนทอง อ.เมืองลำปาง จ.ลำปาง 52000,,มี,18.2813835,99.4510002
726,บริษัท สยามโกลบอลเฮ้าส์ จำกัด(มหาชน) สาขาลำพูน,161 หมู่ 5  ต.เวียงยอง อ.เมืองลำพูน จ.ลำพูน 51000,,มี,18.5613439,99.0346009
727,บริษัท สยามโกลบอลเฮ้าส์ จำกัด(มหาชน) สาขาเลย,601 หมู่ที่ 9 ต.นาอาน อ.เมืองเลย จ.เลย 42000,,ไม่มี,17.4631034,101.727219
728,บริษัท แกรนด์โฮมมาร์ท จำกัด,123 หมู่ที่ 8 ต.หนองฉลอง อ.ขุขันธ์ จ.ศรีสะเกษ 33140,,ไม่มี,,
729,บริษัท สยามโกลบอลเฮ้าส์ จำกัด(มหาชน) สาขากันทรลักษ์,333 หมู่ที่ 8 ต.หนองหญ้าลาด อ.กันทรลักษ์ จ.ศรีสะเกษ 33110,,มี,,
730,บริษัท สยามโกลบอลเฮ้าส์ จำกัด(มหาชน) สาขาสกลนคร,444 หมู่ 9 ถ.บ้านนาอ้อย ต.ธาตุเชิงชุม อ.เมืองสกลนคร จ.สกลนคร 47000,042-971146,มี,17.1284164,104.1402507
731,บริษัท สยามโกลบอลเฮ้าส์ จำกัด(มหาชน) สาขาพังโคน,642 หมู่ที่ 1 ต.พังโคน อ.พังโคน จ.สกลนคร 47160,,ไม่มี,17.3861277,103.7333137
732,บริษัท ไทยเพิ่มพูลโฮมช็อป รีเทล จำกัด,99/9 หมู่ที่ 6 ต.พังโคน อ.พังโคน จ.สกลนคร 47160,042-091-000,มี,,
733,บริษัท สยามโกลบอลเฮ้าส์ จำกัด(มหาชน) สาขาสตูล,622 หมู่ที่ 1 ต.บ้านควน อ.เมืองสตูล จ.สตูล 91140,,มี,,
734,บริษัท แกรนด์โฮมมาร์ท จำกัด,159 หมู่ที่ 14 ต.บางพลีใหญ่ อ.บางพลี จ.สมุทรปราการ 10540,02-316-6888,มี,13.6440251,100.6934101
735,บริษัท สยามโกลบอลเฮ้าส์ จำกัด(มหาชน) สาขาเทพารักษ์,76/12 หมู่ที่ 3 ต.บางพลีใหญ่ อ.บางพลี จ.สมุทรปราการ 10540,093-320-8154,ไม่มี,13.608601,100.680896
736,บริษัท สยามโกลบอลเฮ้าส์ จำกัด(มหาชน) สาขาสมุทรสงคราม,99/1 หมู่ที่ 11 ต.ลาดใหญ่ อ.เมืองสมุทรสงคราม จ.สมุทรสงคราม 75000,,มี,13.4370906,100.0310278
